[
  {
    "Name": "寵物當家動物醫院",
    "Address": "彰化縣彰化市中正路二段823號",
    "Latitude": 24.0651677,
    "Longitude": 120.534741,
    "Tel": "04-7512869"
  },
  {
    "Name": "馬汀動物醫院",
    "Address": "彰化縣彰化市中正路二段751號",
    "Latitude": 24.0666623,
    "Longitude": 120.5349369,
    "Tel": "04-7633456"
  },
  {
    "Name": "獸依動物醫院",
    "Address": "彰化縣彰化市中山路二段289號",
    "Latitude": 24.0728774,
    "Longitude": 120.5429684,
    "Tel": "04-7285678"
  },
  {
    "Name": "興旺家畜醫院",
    "Address": "彰化縣彰化市進德路90號",
    "Latitude": 24.0858756,
    "Longitude": 120.558887,
    "Tel": "04-7242277"
  },
  {
    "Name": "博愛動物醫院",
    "Address": "彰化縣彰化市中山路二段955號",
    "Latitude": 24.0544468,
    "Longitude": 120.5346205,
    "Tel": "04-7274910"
  },
  {
    "Name": "傑克動物醫院",
    "Address": "彰化縣彰化市旭光路184號",
    "Latitude": 24.072477,
    "Longitude": 120.546104,
    "Tel": "04-7273400"
  },
  {
    "Name": "彰化家畜診所",
    "Address": "彰化縣彰化市長順街22之2號",
    "Latitude": 24.084556,
    "Longitude": 120.550905,
    "Tel": "04-7221515"
  },
  {
    "Name": "快樂動物醫院",
    "Address": "彰化縣彰化市彰化市彰南路二段180號",
    "Latitude": 24.0846509,
    "Longitude": 120.580986,
    "Tel": "04-7384978"
  },
  {
    "Name": "金龍家畜醫院",
    "Address": "彰化縣彰化市華山路266號",
    "Latitude": 24.0758304,
    "Longitude": 120.5360544,
    "Tel": "04-7229788"
  },
  {
    "Name": "宗利獸醫院",
    "Address": "彰化縣彰化市泰和路二段412巷106號",
    "Latitude": 24.0933069,
    "Longitude": 120.556488,
    "Tel": "04-7285339"
  },
  {
    "Name": "立安家畜醫院",
    "Address": "彰化縣彰化市互助一街7巷87號",
    "Latitude": 24.0724888,
    "Longitude": 120.6012524,
    "Tel": "04-7324692"
  },
  {
    "Name": "小北動物醫院彰化分院",
    "Address": "彰化縣彰化市中正路二段601號",
    "Latitude": 24.069148,
    "Longitude": 120.535949,
    "Tel": "04-7279588"
  },
  {
    "Name": "全興動物醫院",
    "Address": "彰化縣彰化市中正路2段256號",
    "Latitude": 24.076285,
    "Longitude": 120.5367091,
    "Tel": "04-7236607"
  },
  {
    "Name": "謝獸醫動物醫院",
    "Address": "彰化縣彰化市三民路132號",
    "Latitude": 24.0845707,
    "Longitude": 120.5415588,
    "Tel": "04-7289465"
  },
  {
    "Name": "冠豪動物醫院",
    "Address": "彰化縣彰化市彰美路一段230號",
    "Latitude": 24.0896569,
    "Longitude": 120.537169,
    "Tel": "04-7200696"
  },
  {
    "Name": "立安動物醫院",
    "Address": "彰化縣彰化市彰美路一段172號",
    "Latitude": 24.0888315,
    "Longitude": 120.5380172,
    "Tel": "04-7270126"
  },
  {
    "Name": "慧光動物醫院",
    "Address": "彰化縣彰化市四維路69巷38號",
    "Latitude": 24.0662227,
    "Longitude": 120.5357985,
    "Tel": "04-7633320"
  },
  {
    "Name": "民家動物醫院",
    "Address": "彰化縣彰化市仁愛路124號",
    "Latitude": 24.069914,
    "Longitude": 120.536965,
    "Tel": "04-7282581"
  },
  {
    "Name": "彰南動物醫院",
    "Address": "彰化縣彰化市中山路二段48號",
    "Latitude": 24.067211,
    "Longitude": 120.539311,
    "Tel": "04-7121799"
  },
  {
    "Name": "立安動物醫院花壇所",
    "Address": "彰化縣花壇鄉中山路428號",
    "Latitude": 24.025193,
    "Longitude": 120.540373,
    "Tel": "04-7270126"
  },
  {
    "Name": "義興家畜醫院",
    "Address": "彰化縣秀水鄉義興村義興路23號",
    "Latitude": 24.0674519,
    "Longitude": 120.490861,
    "Tel": "04-7526881"
  },
  {
    "Name": "中西獸醫動物醫院",
    "Address": "彰化縣秀水鄉福安村彰水路二段439號",
    "Latitude": 24.0281123,
    "Longitude": 120.4944846,
    "Tel": "04-8654834"
  },
  {
    "Name": "成愛動物醫院",
    "Address": "彰化縣福興鄉彰鹿路七段637號",
    "Latitude": 24.0489149,
    "Longitude": 120.4405018,
    "Tel": "04-7755984"
  },
  {
    "Name": "三福動物醫院",
    "Address": "彰化縣和美鎮彰美路五段117號",
    "Latitude": 24.107473,
    "Longitude": 120.5023654,
    "Tel": "04-7551240"
  },
  {
    "Name": "愛犬動物醫院",
    "Address": "彰化縣和美鎮道周路553號",
    "Latitude": 24.1097034,
    "Longitude": 120.4930858,
    "Tel": "04-7567481"
  },
  {
    "Name": "佑旺動物醫院",
    "Address": "彰化縣員林鎮修東路53號",
    "Latitude": 23.963353,
    "Longitude": 120.575796,
    "Tel": "04 836 9896"
  },
  {
    "Name": "畜安獸醫院",
    "Address": "彰化縣員林鎮員大路一段1巷90號",
    "Latitude": 23.963099,
    "Longitude": 120.56084,
    "Tel": "04-8320583"
  },
  {
    "Name": "忠愛動物醫院",
    "Address": "彰化縣員林鎮中山路二段490號",
    "Latitude": 23.9711059,
    "Longitude": 120.571735,
    "Tel": "04-8324704"
  },
  {
    "Name": "沛國動物醫院",
    "Address": "彰化縣員林鎮大智街4號",
    "Latitude": 23.9693809,
    "Longitude": 120.572509,
    "Tel": "04-8326979"
  },
  {
    "Name": "良友動物醫院",
    "Address": "彰化縣員林鎮員水路二段511號",
    "Latitude": 23.9558627,
    "Longitude": 120.577142,
    "Tel": "04-8321951"
  },
  {
    "Name": "弘吉獸醫院",
    "Address": "彰化縣員林鎮中山南路88號",
    "Latitude": 23.95407,
    "Longitude": 120.570863,
    "Tel": "04-8328902"
  },
  {
    "Name": "生偉動物醫院",
    "Address": "彰化縣員林鎮雙平路15號",
    "Latitude": 23.9645117,
    "Longitude": 120.570444,
    "Tel": "04-8335769"
  },
  {
    "Name": "生偉動物醫院",
    "Address": "彰化縣員林鎮雙平路15號",
    "Latitude": 23.9645117,
    "Longitude": 120.570444,
    "Tel": "04-8335769"
  },
  {
    "Name": "濟生獸醫院",
    "Address": "彰化縣員林鎮靜修路74-8號",
    "Latitude": 23.9624019,
    "Longitude": 120.56488,
    "Tel": "04-8343560"
  },
  {
    "Name": "員林動物醫院",
    "Address": "彰化縣員林鎮靜修路49-3號",
    "Latitude": 23.9620939,
    "Longitude": 120.569835,
    "Tel": "04-8357631"
  },
  {
    "Name": "農友之家動物醫院",
    "Address": "彰化縣員林鎮育英路113號",
    "Latitude": 23.9623599,
    "Longitude": 120.5742706,
    "Tel": "04-8321267"
  },
  {
    "Name": "農友家畜醫院",
    "Address": "彰化縣員林鎮仁美里育英路125號",
    "Latitude": 23.962585,
    "Longitude": 120.5742198,
    "Tel": "04-8374203"
  },
  {
    "Name": "忠愛動物醫院－員林中山旗艦院",
    "Address": "彰化縣員林鎮中山路二段490號",
    "Latitude": 23.9711059,
    "Longitude": 120.571735,
    "Tel": "04-8324704"
  },
  {
    "Name": "中國動物醫院",
    "Address": "彰化縣員林鎮中山路二段477-1號",
    "Latitude": 23.970762,
    "Longitude": 120.571274,
    "Tel": "04-8321316"
  },
  {
    "Name": "華成家畜診所",
    "Address": "彰化縣員林鎮三愛里大同路二段30號",
    "Latitude": 23.9674524,
    "Longitude": 120.5787792,
    "Tel": "04-8328112"
  },
  {
    "Name": "永祥動物醫院",
    "Address": "彰化縣員林鎮三條里員東路二段318號",
    "Latitude": 23.9592025,
    "Longitude": 120.5811563,
    "Tel": "04-8311781"
  },
  {
    "Name": "明興家畜醫院",
    "Address": "彰化縣社頭鄉山腳路三段632巷5弄2號",
    "Latitude": 23.9136364,
    "Longitude": 120.6080601,
    "Tel": "04-8330963"
  },
  {
    "Name": "吉美動物醫院",
    "Address": "彰化縣社頭鄉民生路750號",
    "Latitude": 23.8970925,
    "Longitude": 120.5888012,
    "Tel": "04-8722982"
  },
  {
    "Name": "永興家畜醫院",
    "Address": "彰化縣永靖鄉水尾路226號",
    "Latitude": 23.9261875,
    "Longitude": 120.5391707,
    "Tel": "04-8223082"
  },
  {
    "Name": "詹動物醫院",
    "Address": "彰化縣永靖鄉中山路一段837號",
    "Latitude": 23.918938,
    "Longitude": 120.546327,
    "Tel": "04-8231715"
  },
  {
    "Name": "賜安愛犬醫院",
    "Address": "彰化縣埔心鄉員鹿路一段55號",
    "Latitude": 23.9565229,
    "Longitude": 120.561636,
    "Tel": "04-8296526"
  },
  {
    "Name": "佑元動物醫院",
    "Address": "彰化縣埔心鄉太平村東平路173號",
    "Latitude": 23.9393884,
    "Longitude": 120.5541836,
    "Tel": "04-8281182"
  },
  {
    "Name": "吉利家畜診所",
    "Address": "彰化縣埔心鄉義民村忠義北路60巷3弄9號",
    "Latitude": 23.9531043,
    "Longitude": 120.5432502,
    "Tel": "0933-100-686"
  },
  {
    "Name": "惟仁動物醫院",
    "Address": "彰化縣溪湖鎮員鹿路2段570號",
    "Latitude": 23.957994,
    "Longitude": 120.4824951,
    "Tel": "04-8810093"
  },
  {
    "Name": "溪湖家畜診所",
    "Address": "彰化縣溪湖鎮二溪路699號",
    "Latitude": 23.9576735,
    "Longitude": 120.4510334,
    "Tel": "04-8854790"
  },
  {
    "Name": "聯合動物醫院",
    "Address": "彰化縣溪湖鎮二溪路二段765號",
    "Latitude": 23.9586701,
    "Longitude": 120.4533057,
    "Tel": "04-8815585"
  },
  {
    "Name": "聯合動物醫院",
    "Address": "彰化縣溪湖鎮二溪路一段452號",
    "Latitude": 23.9593664,
    "Longitude": 120.4696974,
    "Tel": "04-8815585"
  },
  {
    "Name": "李家畜診所",
    "Address": "彰化縣溪湖鎮環中街69號",
    "Latitude": 23.9601488,
    "Longitude": 120.4811527,
    "Tel": "04-8853981"
  },
  {
    "Name": "陳獸醫動物醫院",
    "Address": "彰化縣溪湖鎮西環路620號",
    "Latitude": 23.9635132,
    "Longitude": 120.4808256,
    "Tel": "04-8811999"
  },
  {
    "Name": "德安家畜醫院",
    "Address": "彰化縣埔鹽鄉彰南村彰水路一段368號",
    "Latitude": 23.9951709,
    "Longitude": 120.4765428,
    "Tel": "04-8654582"
  },
  {
    "Name": "忠愛動物醫院田中分院",
    "Address": "彰化縣田中鎮員集路558號",
    "Latitude": 23.8624607,
    "Longitude": 120.5850173,
    "Tel": "04-8748086"
  },
  {
    "Name": "正愛獸醫院",
    "Address": "彰化縣田中鎮員集路二段345號",
    "Latitude": 23.8577203,
    "Longitude": 120.5857746,
    "Tel": "04-8748177"
  },
  {
    "Name": "大理研究動物醫院",
    "Address": "彰化縣田中鎮員集路三段99號",
    "Latitude": 23.8675826,
    "Longitude": 120.5872493,
    "Tel": "04-8946400"
  },
  {
    "Name": "勝宏動物醫院",
    "Address": "彰化縣田中鎮中新路中新二街31號",
    "Latitude": 23.8574889,
    "Longitude": 120.5893187,
    "Tel": "04-8742410"
  },
  {
    "Name": "躍犬動物醫院",
    "Address": "彰化縣北斗鎮四維路66號",
    "Latitude": 23.8720706,
    "Longitude": 120.5172685,
    "Tel": "04-8870977"
  },
  {
    "Name": "安安動物醫院",
    "Address": "彰化縣北斗鎮公所街124號",
    "Latitude": 23.8710175,
    "Longitude": 120.5192455,
    "Tel": "04-8877116"
  },
  {
    "Name": "久泰動物醫院",
    "Address": "彰化縣北斗鎮公所街150號",
    "Latitude": 23.8709435,
    "Longitude": 120.5187022,
    "Tel": "04-8885972"
  },
  {
    "Name": "吉美動物醫院",
    "Address": "彰化縣田尾鄉海豐村中正路三段343號",
    "Latitude": 23.9199769,
    "Longitude": 120.4994497,
    "Tel": "04-8227096"
  },
  {
    "Name": "佳佳動物醫院",
    "Address": "彰化縣田尾鄉中山路一段350之2號",
    "Latitude": 23.8896928,
    "Longitude": 120.5263481,
    "Tel": "04-8833766"
  },
  {
    "Name": "會統動物醫院",
    "Address": "彰化縣溪州鄉中山路三段397號",
    "Latitude": 23.8529219,
    "Longitude": 120.4957198,
    "Tel": "04-8895036"
  },
  {
    "Name": "富瑞診所",
    "Address": "彰化縣溪州鄉成功村下田路6之16號",
    "Latitude": 23.8258249,
    "Longitude": 120.548197,
    "Tel": "04-8804766"
  },
  {
    "Name": "杏林獸醫院",
    "Address": "彰化縣二林鎮仁愛路362號",
    "Latitude": 23.903653,
    "Longitude": 120.3717932,
    "Tel": "04-8950710"
  },
  {
    "Name": "中興動物醫院",
    "Address": "彰化縣二林鎮斗苑路四段523號",
    "Latitude": 23.8994538,
    "Longitude": 120.3768022,
    "Tel": "04-8954472"
  },
  {
    "Name": "鐶東動物醫院",
    "Address": "彰化縣芳苑鄉草湖村二溪路草二段493號",
    "Latitude": 23.9584354,
    "Longitude": 120.3835641,
    "Tel": "04-8861201"
  },
  {
    "Name": "尚峰獸醫院",
    "Address": "彰化縣芳苑鄉芳漢路王功段343號",
    "Latitude": 23.9619016,
    "Longitude": 120.3377908,
    "Tel": "04-8935539"
  },
  {
    "Name": "慶安家畜醫院",
    "Address": "彰化縣二水鄉員集路五段578號",
    "Latitude": 23.831594,
    "Longitude": 120.603771,
    "Tel": "04-8745265"
  },
  {
    "Name": "安利獸醫院",
    "Address": "彰化縣鹿港鎮鹿和路二段262巷47號",
    "Latitude": 24.0702284,
    "Longitude": 120.4587204,
    "Tel": "04-7769799"
  },
  {
    "Name": "成愛動物醫院",
    "Address": "彰化縣鹿港鎮彰鹿路7段637號",
    "Latitude": 24.0487049,
    "Longitude": 120.440422,
    "Tel": "04-7755984"
  },
  {
    "Name": "鹿港動物醫院",
    "Address": "彰化縣鹿港鎮中正路402-1號",
    "Latitude": 24.0593818,
    "Longitude": 120.4390803,
    "Tel": "04-7762037"
  },
  {
    "Name": "人愛動物醫院",
    "Address": "彰化縣鹿港鎮中正路272號-1",
    "Latitude": 24.0561876,
    "Longitude": 120.4403215,
    "Tel": "04-7762818"
  }
]