[
  {
    "Name": "齊恩動物醫院",
    "Address": "嘉義市嘉義市興業東路18號1樓",
    "Latitude": 23.4692701,
    "Longitude": 120.4546887,
    "Tel": "05-2284006"
  },
  {
    "Name": "平愛動物醫院",
    "Address": "嘉義市嘉義市興業西路371號",
    "Latitude": 23.4675206,
    "Longitude": 120.4368451,
    "Tel": "05-2869535"
  },
  {
    "Name": "健生動物醫院",
    "Address": "嘉義市嘉義市義教街725號",
    "Latitude": 23.4984054,
    "Longitude": 120.4540397,
    "Tel": "05-2773450"
  },
  {
    "Name": "大川動物醫院",
    "Address": "嘉義市嘉義市新民路627號",
    "Latitude": 23.4666133,
    "Longitude": 120.4400738,
    "Tel": "05-2858609"
  },
  {
    "Name": "裕發家畜醫院",
    "Address": "嘉義市嘉義市東區民樂街118號",
    "Latitude": 23.4808324,
    "Longitude": 120.4549142,
    "Tel": "05-2254018"
  },
  {
    "Name": "高醫動物醫院",
    "Address": "嘉義市嘉義市中興路716號",
    "Latitude": 23.4715265,
    "Longitude": 120.429692,
    "Tel": "05-2351339"
  },
  {
    "Name": "高品動物醫院",
    "Address": "嘉義市嘉義市中興路489號",
    "Latitude": 23.4788641,
    "Longitude": 120.4290066,
    "Tel": "05-2811893"
  },
  {
    "Name": "諸德家畜醫院",
    "Address": "嘉義市東區嘉義市吳鳳北路106號",
    "Latitude": 23.477008,
    "Longitude": 120.4535317,
    "Tel": "05-2279206"
  },
  {
    "Name": "興達獸醫院",
    "Address": "嘉義市東區嘉義市吳鳳南路50號之1",
    "Latitude": 23.4706893,
    "Longitude": 120.4540754,
    "Tel": "05-2290407"
  },
  {
    "Name": "嘉義家畜醫院",
    "Address": "嘉義市東區和平路62號1樓",
    "Latitude": 23.4755411,
    "Longitude": 120.4577912,
    "Tel": "05-2782255"
  },
  {
    "Name": "建生家畜醫院",
    "Address": "嘉義市東區義教街725號",
    "Latitude": 23.4984054,
    "Longitude": 120.4540397,
    "Tel": "05-2773450"
  },
  {
    "Name": "嘉義大學附設醫院",
    "Address": "嘉義市東區學府路300號",
    "Latitude": 23.465364,
    "Longitude": 120.4836329,
    "Tel": "05-2775628"
  },
  {
    "Name": "欣欣動物醫院",
    "Address": "嘉義市東區義教街622號",
    "Latitude": 23.4983209,
    "Longitude": 120.4562126,
    "Tel": "05-2758961"
  },
  {
    "Name": "永全動物醫院",
    "Address": "嘉義市東區吳鳳南路299-2號",
    "Latitude": 23.4641619,
    "Longitude": 120.4592364,
    "Tel": "05-2253117"
  },
  {
    "Name": "良友動物醫院",
    "Address": "嘉義市東區林森東路337號",
    "Latitude": 23.4922435,
    "Longitude": 120.4709506,
    "Tel": "05-2751397"
  },
  {
    "Name": "九大動物醫院",
    "Address": "嘉義市東區體育路67之1號",
    "Latitude": 23.4734834,
    "Longitude": 120.4615761,
    "Tel": "05-2291608"
  },
  {
    "Name": "紀動物醫院",
    "Address": "嘉義市東區民權路208號",
    "Latitude": 23.4832756,
    "Longitude": 120.4546396,
    "Tel": "05-2750476"
  },
  {
    "Name": "揚名動物醫院",
    "Address": "嘉義市東區吳鳳北路167號",
    "Latitude": 23.4776417,
    "Longitude": 120.453361,
    "Tel": "05-2223630"
  },
  {
    "Name": "榮安家畜醫院",
    "Address": "嘉義市東區民樂街166號",
    "Latitude": 23.4806974,
    "Longitude": 120.4537197,
    "Tel": "05-2224993"
  },
  {
    "Name": "仁愛動物醫院",
    "Address": "嘉義市東區新生路214號",
    "Latitude": 23.4833953,
    "Longitude": 120.4610319,
    "Tel": "05-2788067"
  },
  {
    "Name": "上哲動物醫院",
    "Address": "嘉義市東區吳鳳北路259號",
    "Latitude": 23.4803712,
    "Longitude": 120.453086,
    "Tel": "05-2231500"
  },
  {
    "Name": "民族獸醫院",
    "Address": "嘉義市東區中山路650號",
    "Latitude": 23.4754879,
    "Longitude": 120.4393422,
    "Tel": "05-2289095"
  },
  {
    "Name": "興家家畜醫院",
    "Address": "嘉義市西區嘉義市徐州一街36號",
    "Latitude": 23.4673241,
    "Longitude": 120.4386498,
    "Tel": "05-2859766"
  },
  {
    "Name": "大園家畜醫院",
    "Address": "嘉義市西區民族路872號",
    "Latitude": 23.4748396,
    "Longitude": 120.4386246,
    "Tel": "05-2316661"
  },
  {
    "Name": "旭生家畜醫院",
    "Address": "嘉義市西區嘉義市世賢路四段350巷27弄6號",
    "Latitude": 23.4624282,
    "Longitude": 120.4503472,
    "Tel": "05-2852457"
  },
  {
    "Name": "啟德家畜醫院",
    "Address": "嘉義市西區保安里北社尾路280-9號7樓1",
    "Latitude": 23.4917014,
    "Longitude": 120.4287488,
    "Tel": "05-2370590"
  },
  {
    "Name": "博愛家畜診所",
    "Address": "嘉義市西區嘉義市博愛路一段389號",
    "Latitude": 23.4874955,
    "Longitude": 120.444474,
    "Tel": "05-2313329"
  },
  {
    "Name": "嘉吉家禽專科診所",
    "Address": "嘉義市西區國賢一街64號8樓1",
    "Latitude": 23.4844018,
    "Longitude": 120.4289059,
    "Tel": "05-2332376"
  },
  {
    "Name": "居財紀念動物醫院",
    "Address": "嘉義市西區劉厝57-1號",
    "Latitude": 23.4618858,
    "Longitude": 120.4171273,
    "Tel": "05-2363083"
  },
  {
    "Name": "明星動物醫院",
    "Address": "嘉義市西區興業西路33號",
    "Latitude": 23.4684744,
    "Longitude": 120.4453028,
    "Tel": "05-2858688"
  },
  {
    "Name": "仁方寵物醫院",
    "Address": "嘉義市西區竹圍路205號",
    "Latitude": 23.4864063,
    "Longitude": 120.4271493,
    "Tel": "05-2311548"
  },
  {
    "Name": "木川動物醫院",
    "Address": "嘉義市西區徐州五街46號",
    "Latitude": 23.4662833,
    "Longitude": 120.4383309,
    "Tel": "05-2853629"
  },
  {
    "Name": "飛揚動物醫院",
    "Address": "嘉義市西區德安路125號",
    "Latitude": 23.4840118,
    "Longitude": 120.4292584,
    "Tel": "05-2336588"
  },
  {
    "Name": "育英動物醫院",
    "Address": "嘉義市西區嘉義市民生南路262號",
    "Latitude": 23.4669703,
    "Longitude": 120.445539,
    "Tel": "05-2856100"
  },
  {
    "Name": "安美動物醫院",
    "Address": "嘉義市西區自由路63號",
    "Latitude": 23.4859175,
    "Longitude": 120.4395252,
    "Tel": "05-2324368"
  },
  {
    "Name": "丸三動物醫院",
    "Address": "嘉義市西區中山路234號",
    "Latitude": 23.4807138,
    "Longitude": 120.4509797,
    "Tel": "05-2259429"
  },
  {
    "Name": "梅山動物醫院",
    "Address": "嘉義縣梅山鄉梅南村公園路115號",
    "Latitude": 23.5754988,
    "Longitude": 120.5552248,
    "Tel": "05-2620408"
  },
  {
    "Name": "永全動物醫院",
    "Address": "嘉義縣中埔鄉和美村後庄232之8號",
    "Latitude": 23.4495883,
    "Longitude": 120.4569505,
    "Tel": "05-2281987"
  },
  {
    "Name": "正偉家畜醫院",
    "Address": "嘉義縣中埔鄉裕民村水仔尾5號",
    "Latitude": 23.433709,
    "Longitude": 120.499356,
    "Tel": "05-2393741"
  },
  {
    "Name": "大和動物醫院",
    "Address": "嘉義縣中埔鄉中山路5段862號",
    "Latitude": 23.452064,
    "Longitude": 120.4605776,
    "Tel": "05-2302629"
  },
  {
    "Name": "迦南動物診所",
    "Address": "嘉義縣水上鄉南和村143號",
    "Latitude": 23.4130375,
    "Longitude": 120.3721607,
    "Tel": "05-2688271"
  },
  {
    "Name": "水上動物醫院",
    "Address": "嘉義縣水上鄉中山路二段998號",
    "Latitude": 23.4467256,
    "Longitude": 120.4095565,
    "Tel": "05-2602261"
  },
  {
    "Name": "元銘動物醫院",
    "Address": "嘉義縣太保市北港路二段403巷251弄14號",
    "Latitude": 23.4973301,
    "Longitude": 120.3693722,
    "Tel": "05-2374826"
  },
  {
    "Name": "嘉保動物醫院",
    "Address": "嘉義縣太保市北港路二段250-10號",
    "Latitude": 23.4978784,
    "Longitude": 120.3748973,
    "Tel": "05-2385580"
  },
  {
    "Name": "嘉信家畜診所",
    "Address": "嘉義縣朴子市永和里111-4號",
    "Latitude": 23.4616421,
    "Longitude": 120.2296358,
    "Tel": "05-5914121"
  },
  {
    "Name": "益源朴子家畜醫院",
    "Address": "嘉義縣朴子市新興路7號",
    "Latitude": 23.4623153,
    "Longitude": 120.2460743,
    "Tel": "05-3793102"
  },
  {
    "Name": "全生動物醫院",
    "Address": "嘉義縣朴子市永和里38之27號",
    "Latitude": 23.4616421,
    "Longitude": 120.2296358,
    "Tel": "05-3792393"
  },
  {
    "Name": "朴子動物醫院",
    "Address": "嘉義縣朴子市大鄉里大糠榔995號",
    "Latitude": 23.465697,
    "Longitude": 120.2572457,
    "Tel": "05-3790010"
  },
  {
    "Name": "仁愛動物醫院",
    "Address": "嘉義縣東石鄉蔦松村湖底路20-39號",
    "Latitude": 23.466128,
    "Longitude": 120.222569,
    "Tel": "05-3742597"
  },
  {
    "Name": "何健雄動物醫院",
    "Address": "嘉義縣新港鄉福德村中山路115-10號",
    "Latitude": 23.553344,
    "Longitude": 120.3475116,
    "Tel": "05-3742160"
  },
  {
    "Name": "永安家畜醫院",
    "Address": "嘉義縣新港鄉福德村福德路112號",
    "Latitude": 23.5571009,
    "Longitude": 120.3429901,
    "Tel": "05-3742144"
  },
  {
    "Name": "永久松動物醫院",
    "Address": "嘉義縣新港鄉古民街69號",
    "Latitude": 23.5589052,
    "Longitude": 120.3510021,
    "Tel": "05-3745026"
  },
  {
    "Name": "維醫動物醫院",
    "Address": "嘉義縣民雄鄉建國路二段148-6號（吳鳳科技大學斜對面）",
    "Latitude": 23.5360276,
    "Longitude": 120.4341554,
    "Tel": "05-2216160"
  },
  {
    "Name": "育生動物醫院",
    "Address": "嘉義縣民雄鄉西安村安和路96號",
    "Latitude": 23.5549707,
    "Longitude": 120.4254064,
    "Tel": "05-2020362"
  },
  {
    "Name": "佑晟動物醫院",
    "Address": "嘉義縣民雄鄉文化路30-4號",
    "Latitude": 23.5529906,
    "Longitude": 120.4302291,
    "Tel": "05-2062175"
  },
  {
    "Name": "存盈家畜醫院",
    "Address": "嘉義縣民雄鄉東榮村文化路24之4號",
    "Latitude": 23.5508892,
    "Longitude": 120.4285973,
    "Tel": "05-2262290"
  },
  {
    "Name": "中美動物醫院",
    "Address": "嘉義縣民雄鄉福樂村埤角408之8號",
    "Latitude": 23.526121,
    "Longitude": 120.443023,
    "Tel": "05-2206986"
  },
  {
    "Name": "鴻昌動物醫院",
    "Address": "嘉義縣民雄鄉建國路2段185-13號",
    "Latitude": 23.5382761,
    "Longitude": 120.4354061,
    "Tel": "05-2268359"
  },
  {
    "Name": "萬安家畜醫院",
    "Address": "嘉義縣大林鄉德卿街26號",
    "Latitude": 23.6024154,
    "Longitude": 120.4594986,
    "Tel": "05-2653451"
  },
  {
    "Name": "保生動物醫院",
    "Address": "嘉義縣大林鄉四維街138號",
    "Latitude": 23.6021479,
    "Longitude": 120.4623502,
    "Tel": "05-2655193"
  },
  {
    "Name": "正山家畜診所",
    "Address": "嘉義縣溪口鄉中正路69號",
    "Latitude": 23.6044725,
    "Longitude": 120.3975016,
    "Tel": "05-2332533"
  },
  {
    "Name": "鵬安動物醫院",
    "Address": "嘉義縣義竹鄉東光村59號",
    "Latitude": 23.3826329,
    "Longitude": 120.2467105,
    "Tel": "05-3420512"
  },
  {
    "Name": "博仁動物醫院",
    "Address": "嘉義縣布袋鎮永安里265號",
    "Latitude": 23.36779,
    "Longitude": 120.1849082,
    "Tel": "05-3472770"
  }
]