[
  {
    "Name": "唯仁動物醫院",
    "Address": "新竹市新竹市經國路二段17-1號",
    "Latitude": 24.8134015,
    "Longitude": 120.9671287,
    "Tel": "03-535-9609"
  },
  {
    "Name": "小花動物醫院",
    "Address": "新竹市新竹市新源街130號1樓",
    "Latitude": 24.80204,
    "Longitude": 120.993043,
    "Tel": "03-574-8460"
  },
  {
    "Name": "全育動物醫院",
    "Address": "新竹市新竹市食品路423號",
    "Latitude": 24.7935664,
    "Longitude": 120.9678182,
    "Tel": "03-561-4316"
  },
  {
    "Name": "淇寶寶動物醫院",
    "Address": "新竹市東區光復路一段362-12號",
    "Latitude": 24.784219,
    "Longitude": 121.016835,
    "Tel": "03-5631093"
  },
  {
    "Name": "傑恩動物醫院",
    "Address": "新竹市東區西大路303號",
    "Latitude": 24.8011583,
    "Longitude": 120.966183,
    "Tel": "03-5278578"
  },
  {
    "Name": "慈安犬貓醫院",
    "Address": "新竹市東區金城一路31號",
    "Latitude": 24.7938835,
    "Longitude": 121.0020022,
    "Tel": "03-5729680"
  },
  {
    "Name": "宜安家畜醫院",
    "Address": "新竹市東區食品路134巷32號",
    "Latitude": 24.7984547,
    "Longitude": 120.9767913,
    "Tel": "03-5230093"
  },
  {
    "Name": "炎宏動物醫院",
    "Address": "新竹市東區民族路214號",
    "Latitude": 24.8098327,
    "Longitude": 120.9805225,
    "Tel": "03-5325572"
  },
  {
    "Name": "自由動物醫院",
    "Address": "新竹市東區光復路二段299號",
    "Latitude": 24.8003569,
    "Longitude": 120.9889994,
    "Tel": "03-5315830"
  },
  {
    "Name": "中美獸醫院",
    "Address": "新竹市東區明湖路608巷21弄14號",
    "Latitude": 24.7757282,
    "Longitude": 120.9655512,
    "Tel": "03-5209576"
  },
  {
    "Name": "三益動物醫院",
    "Address": "新竹市東區中華路一段170之1號",
    "Latitude": 24.8136465,
    "Longitude": 120.9900125,
    "Tel": "03-5423716"
  },
  {
    "Name": "安欣動物醫院",
    "Address": "新竹市東區體育街28號",
    "Latitude": 24.8021739,
    "Longitude": 120.9820075,
    "Tel": "03-5615528"
  },
  {
    "Name": "高生動物醫院",
    "Address": "新竹市東區中華路2段620號",
    "Latitude": 24.79903,
    "Longitude": 120.9666366,
    "Tel": "03-5260933"
  },
  {
    "Name": "加賀動物醫院",
    "Address": "新竹市東區中華路2段613號",
    "Latitude": 24.7990827,
    "Longitude": 120.9671342,
    "Tel": "03-5254171"
  },
  {
    "Name": "協和動物診所",
    "Address": "新竹市東區南大路48號",
    "Latitude": 24.802804,
    "Longitude": 120.9778511,
    "Tel": "03-5215380"
  },
  {
    "Name": "關東動物醫院",
    "Address": "新竹市東區光復路1段305號",
    "Latitude": 24.782239,
    "Longitude": 121.018869,
    "Tel": "03-5774689"
  },
  {
    "Name": "安定動物醫院",
    "Address": "新竹市東區建美路45號",
    "Latitude": 24.8020614,
    "Longitude": 120.9980046,
    "Tel": "03-571-2135"
  },
  {
    "Name": "台大安欣動物醫院",
    "Address": "新竹市東區體育街28號",
    "Latitude": 24.8021739,
    "Longitude": 120.9820075,
    "Tel": "03-561-5528"
  },
  {
    "Name": "艾諾動物醫院",
    "Address": "新竹市東區科學園路106號1樓",
    "Latitude": 24.7842133,
    "Longitude": 121.0108808,
    "Tel": "03-577-8899"
  },
  {
    "Name": "懷生動物醫院",
    "Address": "新竹市東區金城一路24號",
    "Latitude": 24.7936505,
    "Longitude": 121.0019616,
    "Tel": "03-575-2382"
  },
  {
    "Name": "信安動物醫院",
    "Address": "新竹市東區民權路242號",
    "Latitude": 24.8130786,
    "Longitude": 120.9712907,
    "Tel": "03-531-8126"
  },
  {
    "Name": "米荳寵物醫院",
    "Address": "新竹市東區明湖路432號",
    "Latitude": 24.784627,
    "Longitude": 120.9674591,
    "Tel": "03-529-3045"
  },
  {
    "Name": "新竺動物醫院",
    "Address": "新竹市東區竹光路98號",
    "Latitude": 24.813557,
    "Longitude": 120.959385,
    "Tel": "03-542-9961"
  },
  {
    "Name": "旺鑫動物醫院",
    "Address": "新竹市東區光復路一段268巷13號1樓",
    "Latitude": 24.783055,
    "Longitude": 121.020526,
    "Tel": "03-577-8558"
  },
  {
    "Name": "祥耀動物醫院",
    "Address": "新竹市東區光復路2段645號",
    "Latitude": 24.804265,
    "Longitude": 120.977892,
    "Tel": "03-562-2446"
  },
  {
    "Name": "紐約動物醫院",
    "Address": "新竹市東區民族路247號1樓",
    "Latitude": 24.8107336,
    "Longitude": 120.9814259,
    "Tel": "03-515-2125"
  },
  {
    "Name": "全美動物醫院",
    "Address": "新竹市東區四維路96號",
    "Latitude": 24.7998683,
    "Longitude": 120.9618312,
    "Tel": "03-526-6284"
  },
  {
    "Name": "育生動物醫院",
    "Address": "新竹市東區中華路二段581號",
    "Latitude": 24.7996401,
    "Longitude": 120.9677798,
    "Tel": "03-523-5998"
  },
  {
    "Name": "台大慈仁動物醫院",
    "Address": "新竹市北區武陵路2-1號 (空軍醫院對面)",
    "Latitude": 24.8152011,
    "Longitude": 120.962305,
    "Tel": "03-5333931"
  },
  {
    "Name": "泰安家畜診所",
    "Address": "新竹市北區經國路二段195巷10號",
    "Latitude": 24.8106226,
    "Longitude": 120.9629564,
    "Tel": "03-5340029"
  },
  {
    "Name": "畜安動物醫院",
    "Address": "新竹市北區光華二街72巷26弄9號",
    "Latitude": 24.8182521,
    "Longitude": 120.977321,
    "Tel": "03-5284666"
  },
  {
    "Name": "祐康動物醫院",
    "Address": "新竹市北區城北街55號",
    "Latitude": 24.8100751,
    "Longitude": 120.9637626,
    "Tel": "03-5236548"
  },
  {
    "Name": "東大動物醫院",
    "Address": "新竹市北區東大路二段582號",
    "Latitude": 24.8221824,
    "Longitude": 120.9591181,
    "Tel": "03-5346398"
  },
  {
    "Name": "宏仁動物醫院",
    "Address": "新竹市北區中正路281號",
    "Latitude": 24.813219,
    "Longitude": 120.96338,
    "Tel": "03-5420651"
  },
  {
    "Name": "仁德家畜醫院",
    "Address": "新竹市北區北大路300號",
    "Latitude": 24.806962,
    "Longitude": 120.963132,
    "Tel": "03-5246080"
  },
  {
    "Name": "全國動物醫院-新竹分院",
    "Address": "新竹市北區經國路二段389號",
    "Latitude": 24.8076261,
    "Longitude": 120.958178,
    "Tel": "03-6215148"
  },
  {
    "Name": "謙華動物醫院",
    "Address": "新竹市北區中華路二段224號",
    "Latitude": 24.8055671,
    "Longitude": 120.976722,
    "Tel": "03-5331414"
  },
  {
    "Name": "中日動物醫院",
    "Address": "新竹市北區西大路656號",
    "Latitude": 24.8082661,
    "Longitude": 120.961116,
    "Tel": "03-5231-0156"
  },
  {
    "Name": "仁心寵物醫院",
    "Address": "新竹市北區北大路105號",
    "Latitude": 24.8103129,
    "Longitude": 120.9691514,
    "Tel": "03-542-9958"
  },
  {
    "Name": "光華動物醫院",
    "Address": "新竹市北區水田街177號",
    "Latitude": 24.817005,
    "Longitude": 120.969218,
    "Tel": "03-543-9840"
  },
  {
    "Name": "名弘動物醫院",
    "Address": "新竹市香山區延平路二段37號",
    "Latitude": 24.8049802,
    "Longitude": 120.9428411,
    "Tel": "03-5308567"
  },
  {
    "Name": "風城動物醫院",
    "Address": "新竹市香山區中華路4段32號",
    "Latitude": 24.7967596,
    "Longitude": 120.9544275,
    "Tel": "03-5305073"
  },
  {
    "Name": "樂寶動物醫院",
    "Address": "新竹縣竹北市自強北路50號",
    "Latitude": 24.8208575,
    "Longitude": 121.0294589,
    "Tel": "03-550 5050"
  },
  {
    "Name": "新竹縣家畜疾病防治所",
    "Address": "新竹縣竹北市縣政5街192號",
    "Latitude": 24.8284583,
    "Longitude": 121.0150649,
    "Tel": "03-5519548"
  },
  {
    "Name": "昇典動物醫院",
    "Address": "新竹縣竹北市中正東路350-1號",
    "Latitude": 24.8359784,
    "Longitude": 121.0100063,
    "Tel": "03-5516477"
  },
  {
    "Name": "大雄動物醫院",
    "Address": "新竹縣竹北市華興街257號",
    "Latitude": 24.838051,
    "Longitude": 121.0005283,
    "Tel": "03-555-1290"
  },
  {
    "Name": "升元動物診所",
    "Address": "新竹縣竹北市竹仁里中正東路318號",
    "Latitude": 24.8354964,
    "Longitude": 121.0113872,
    "Tel": "03-555-5570"
  },
  {
    "Name": "博恩動物醫院",
    "Address": "新竹縣竹北市光明一路75號",
    "Latitude": 24.8293943,
    "Longitude": 121.0183579,
    "Tel": "03-558-3646"
  },
  {
    "Name": "里仁動物醫院",
    "Address": "新竹縣竹北市文興路一段71號",
    "Latitude": 24.8120928,
    "Longitude": 121.025754,
    "Tel": "03-658-5530"
  },
  {
    "Name": "傑克動物醫院",
    "Address": "新竹縣竹北市文信路81號",
    "Latitude": 24.8311652,
    "Longitude": 121.0181204,
    "Tel": "03-657-0604"
  },
  {
    "Name": "唯仁動物醫院",
    "Address": "新竹縣竹北市中華路226號",
    "Latitude": 24.8313969,
    "Longitude": 121.0026367,
    "Tel": "03-656-6600"
  },
  {
    "Name": "佑安犬貓醫院",
    "Address": "新竹縣竹北市中華路135號",
    "Latitude": 24.8464713,
    "Longitude": 121.0040205,
    "Tel": "03-551-3866"
  },
  {
    "Name": "超群動物醫院",
    "Address": "新竹縣竹北市中正東路105號",
    "Latitude": 24.8349986,
    "Longitude": 121.0173907,
    "Tel": "03-552-9277"
  },
  {
    "Name": "生生動物醫院",
    "Address": "新竹縣湖口鄉中山路二段285號",
    "Latitude": 24.9067613,
    "Longitude": 121.0467835,
    "Tel": "03-5823451"
  },
  {
    "Name": "安和動物醫院",
    "Address": "新竹縣湖口鄉成功路186號",
    "Latitude": 24.903377,
    "Longitude": 121.042157,
    "Tel": "03-590-8239"
  },
  {
    "Name": "永康動物醫院",
    "Address": "新竹縣湖口鄉民權街76號",
    "Latitude": 24.9036455,
    "Longitude": 121.0471325,
    "Tel": "03-590-2239"
  },
  {
    "Name": "明新動物醫院",
    "Address": "新竹縣新豐鄉新興路154號",
    "Latitude": 24.867972,
    "Longitude": 120.9941689,
    "Tel": "03-557-7637"
  },
  {
    "Name": "元沅動物診所",
    "Address": "新竹縣新豐鄉重興村5鄰新庄路295號",
    "Latitude": 24.903725,
    "Longitude": 120.985009,
    "Tel": "03-559-6070"
  },
  {
    "Name": "新埔獸醫院",
    "Address": "新竹縣新埔鎮中正路400號",
    "Latitude": 24.8279379,
    "Longitude": 121.0784196,
    "Tel": "03-5882076"
  },
  {
    "Name": "成良家畜醫院",
    "Address": "新竹縣關西鎮正義路187號",
    "Latitude": 24.7966335,
    "Longitude": 121.1728679,
    "Tel": "03-5872340"
  },
  {
    "Name": "佑安動物醫院",
    "Address": "新竹縣關西鎮正義路158-2號",
    "Latitude": 24.795272,
    "Longitude": 121.175256,
    "Tel": "03-5513866"
  },
  {
    "Name": "東沅動物醫院",
    "Address": "新竹縣關西鎮中山東路212號",
    "Latitude": 24.7912544,
    "Longitude": 121.1789668,
    "Tel": "03-5878878"
  },
  {
    "Name": "輝豐獸醫院",
    "Address": "新竹縣竹東鎮安東路45巷26號",
    "Latitude": 24.7213185,
    "Longitude": 121.0975968,
    "Tel": "03-5951634"
  },
  {
    "Name": "濟聖犬貓醫院",
    "Address": "新竹縣竹東鎮東寧路二段328號",
    "Latitude": 24.7363079,
    "Longitude": 121.0885405,
    "Tel": "03-595-7888"
  },
  {
    "Name": "畜安動物醫院",
    "Address": "新竹縣竹東鎮東寧路一段61號",
    "Latitude": 24.7231632,
    "Longitude": 121.0957064,
    "Tel": "03-595-6158"
  },
  {
    "Name": "仁愛動物醫院",
    "Address": "新竹縣竹東鎮仁愛路358號",
    "Latitude": 24.7386059,
    "Longitude": 121.0908828,
    "Tel": "03-594-0029"
  },
  {
    "Name": "傑昇動物醫院",
    "Address": "新竹縣竹東鎮三重里中興路1段189號",
    "Latitude": 24.7552227,
    "Longitude": 121.0708784,
    "Tel": "03-582-8643"
  },
  {
    "Name": "港九神獒推廣研究中心",
    "Address": "新竹縣橫山鄉沙坑村1鄰3號",
    "Latitude": 24.7399827,
    "Longitude": 121.162448,
    "Tel": "03-5811149"
  }
]