[
  {
    "Name": "上海動物醫院",
    "Address": "花蓮縣花蓮市上海街63號",
    "Latitude": 23.9729342,
    "Longitude": 121.6021577,
    "Tel": "03-8341853"
  },
  {
    "Name": "亞新動物醫院",
    "Address": "花蓮縣花蓮市中山路533號之1",
    "Latitude": 23.9859339,
    "Longitude": 121.601951,
    "Tel": "03-8323426"
  },
  {
    "Name": "林家畜醫院",
    "Address": "花蓮縣花蓮市德安5街12號",
    "Latitude": 23.9743731,
    "Longitude": 121.5958882,
    "Tel": "03-8359523"
  },
  {
    "Name": "楊動物醫院",
    "Address": "花蓮縣花蓮市中原路552號",
    "Latitude": 23.9727567,
    "Longitude": 121.5959811,
    "Tel": "03-8337960"
  },
  {
    "Name": "蕙康動物醫院",
    "Address": "花蓮縣花蓮市和平路635號",
    "Latitude": 23.9797373,
    "Longitude": 121.5980157,
    "Tel": "03-8352122"
  },
  {
    "Name": "人人動物醫院",
    "Address": "花蓮縣花蓮市中正路559號",
    "Latitude": 23.9775073,
    "Longitude": 121.6075772,
    "Tel": "03-8355305"
  },
  {
    "Name": "友博動物醫院",
    "Address": "花蓮縣花蓮市中華路268-1號",
    "Latitude": 23.9753061,
    "Longitude": 121.5999411,
    "Tel": "03-8336288"
  },
  {
    "Name": "花蓮動物醫院",
    "Address": "花蓮縣花蓮市國富十街118號",
    "Latitude": 23.9916953,
    "Longitude": 121.596451,
    "Tel": "03-8571650"
  },
  {
    "Name": "中華動物醫院",
    "Address": "花蓮縣花蓮市中華路325號之7",
    "Latitude": 23.9749786,
    "Longitude": 121.5981546,
    "Tel": "03-8335123"
  },
  {
    "Name": "美崙動物醫院",
    "Address": "花蓮縣花蓮市中華路154號",
    "Latitude": 23.9757109,
    "Longitude": 121.6038971,
    "Tel": "03-8311092"
  },
  {
    "Name": "高橋動物醫院",
    "Address": "花蓮縣花蓮市中正路142號",
    "Latitude": 23.9705863,
    "Longitude": 121.5974343,
    "Tel": "03-8358792"
  },
  {
    "Name": "中原家畜醫院",
    "Address": "花蓮縣花蓮市中山路438號",
    "Latitude": 23.9879984,
    "Longitude": 121.6009373,
    "Tel": "03-8341857"
  },
  {
    "Name": "台大吉安動物醫院",
    "Address": "花蓮縣吉安鄉建國路1段40號之5",
    "Latitude": 23.9849918,
    "Longitude": 121.5956727,
    "Tel": "03-8561780"
  },
  {
    "Name": "曾獸醫犬貓醫院",
    "Address": "花蓮縣吉安鄉建國路一段129號",
    "Latitude": 23.9856878,
    "Longitude": 121.5918116,
    "Tel": "03-8572232"
  },
  {
    "Name": "新和動物醫院",
    "Address": "花蓮縣吉安鄉海岸路363號",
    "Latitude": 23.9529926,
    "Longitude": 121.5917943,
    "Tel": "03-8538672"
  },
  {
    "Name": "中山犬貓專科診所",
    "Address": "花蓮縣吉安鄉建昌路176號",
    "Latitude": 23.9892623,
    "Longitude": 121.5918996,
    "Tel": "03-8570658"
  },
  {
    "Name": "永安動物醫院",
    "Address": "花蓮縣吉安鄉永安村吉安路一段81號",
    "Latitude": 23.988939,
    "Longitude": 121.5733976,
    "Tel": "03-8563566"
  },
  {
    "Name": "慶豐動物醫院",
    "Address": "花蓮縣吉安鄉慶豐村吉安路二段320號",
    "Latitude": 23.9793274,
    "Longitude": 121.567172,
    "Tel": "03-8530737"
  },
  {
    "Name": "建國動物醫院",
    "Address": "花蓮縣吉安鄉建國路一段9號",
    "Latitude": 23.9846553,
    "Longitude": 121.5962921,
    "Tel": "03-8565715"
  },
  {
    "Name": "祐安動物醫院",
    "Address": "花蓮縣吉安鄉仁和村海岸路296號",
    "Latitude": 23.953335,
    "Longitude": 121.5916464,
    "Tel": "03-8521079"
  },
  {
    "Name": "牧者行",
    "Address": "花蓮縣壽豐鄉壽豐村中山路六段37號",
    "Latitude": 23.870993,
    "Longitude": 121.5101037,
    "Tel": "03-8652710"
  },
  {
    "Name": "昇泰行",
    "Address": "花蓮縣壽豐鄉豐山村忠孝街12巷85弄15號",
    "Latitude": 23.8492422,
    "Longitude": 121.4928272,
    "Tel": "03-8654126"
  },
  {
    "Name": "向陽動物醫院",
    "Address": "花蓮縣壽豐鄉中山路6段174號",
    "Latitude": 23.875886,
    "Longitude": 121.5126422,
    "Tel": "0939-011599"
  },
  {
    "Name": "祥和動物診所",
    "Address": "花蓮縣瑞穗鄉瑞祥村祥北路二段148號",
    "Latitude": 23.4975552,
    "Longitude": 121.3547334,
    "Tel": "03-8872191"
  },
  {
    "Name": "祥和動物診所",
    "Address": "花蓮縣瑞穗鄉瑞祥村祥北路二段148號",
    "Latitude": 23.4975552,
    "Longitude": 121.3547334,
    "Tel": "03-8872191"
  },
  {
    "Name": "香根動物醫院",
    "Address": "花蓮縣玉里鎮源城里光復路54號",
    "Latitude": 23.332274,
    "Longitude": 121.3170773,
    "Tel": "03-8886888"
  },
  {
    "Name": "東美動物診所",
    "Address": "花蓮縣玉里鎮中城里中山路一段210號2樓",
    "Latitude": 23.3314762,
    "Longitude": 121.3158146,
    "Tel": "0938-042831"
  },
  {
    "Name": "和平動物診所",
    "Address": "花蓮縣玉里鎮和平路60號",
    "Latitude": 23.3322885,
    "Longitude": 121.3145542,
    "Tel": "03-8980378"
  },
  {
    "Name": "玉里動物醫院",
    "Address": "花蓮縣玉里鎮光復路120號",
    "Latitude": 23.3313171,
    "Longitude": 121.3139913,
    "Tel": "03-8889479"
  },
  {
    "Name": "東美動物診所",
    "Address": "花蓮縣玉里鎮中城里中山路一段210號2樓",
    "Latitude": 23.3314762,
    "Longitude": 121.3158146,
    "Tel": "0938-042831"
  },
  {
    "Name": "玉里動物醫院",
    "Address": "花蓮縣玉里鎮光復路120號",
    "Latitude": 23.3313171,
    "Longitude": 121.3139913,
    "Tel": "03-8889479"
  },
  {
    "Name": "和平動物診所",
    "Address": "花蓮縣玉里鎮和平路60號",
    "Latitude": 23.3322885,
    "Longitude": 121.3145542,
    "Tel": "03-8980378"
  }
]