[
  {
    "Name": "東園動物醫院",
    "Address": "宜蘭縣宜蘭市小東路22之6號",
    "Latitude": 24.7599711,
    "Longitude": 121.757475,
    "Tel": "03-9327-752"
  },
  {
    "Name": "六福動物醫院",
    "Address": "宜蘭縣宜蘭市宜興路2段100號",
    "Latitude": 24.7595953,
    "Longitude": 121.7595436,
    "Tel": "03-9315-690"
  },
  {
    "Name": "噶瑪蘭動物醫院",
    "Address": "宜蘭縣宜蘭市新興路119號",
    "Latitude": 24.7616276,
    "Longitude": 121.756818,
    "Tel": "03-932-6119"
  },
  {
    "Name": "德生動物醫院",
    "Address": "宜蘭縣宜蘭市新民路68號",
    "Latitude": 24.7569086,
    "Longitude": 121.7567432,
    "Tel": "03-931-2162"
  },
  {
    "Name": "宜蘭動物醫院",
    "Address": "宜蘭縣宜蘭市宜興路一段65號",
    "Latitude": 24.7498769,
    "Longitude": 121.7555374,
    "Tel": "03-932-4774"
  },
  {
    "Name": "中山犬貓醫院",
    "Address": "宜蘭縣宜蘭市小東路13-2號",
    "Latitude": 24.759029,
    "Longitude": 121.7568394,
    "Tel": "03-935-1516"
  },
  {
    "Name": "方碩士獸醫院",
    "Address": "宜蘭縣宜蘭市長春路51號8號",
    "Latitude": 24.7473422,
    "Longitude": 121.7486007,
    "Tel": "03-935-6677"
  },
  {
    "Name": "頭城動物醫院",
    "Address": "宜蘭縣頭城鄉青雲路26-1號",
    "Latitude": 24.8375769,
    "Longitude": 121.7895249,
    "Tel": "039-771808"
  },
  {
    "Name": "凱麗動物醫院",
    "Address": "宜蘭縣頭城鄉新興路289號",
    "Latitude": 24.856347,
    "Longitude": 121.820075,
    "Tel": "03-979-9157"
  },
  {
    "Name": "旺旺動物醫院",
    "Address": "宜蘭縣壯圍鄉壯五路141號",
    "Latitude": 24.745816,
    "Longitude": 121.786625,
    "Tel": "039-384877"
  },
  {
    "Name": "劉獸醫院",
    "Address": "宜蘭縣羅東鄉中正路21號之1",
    "Latitude": 24.6731036,
    "Longitude": 121.7703155,
    "Tel": "03-9550-003"
  },
  {
    "Name": "弘吉獸醫院",
    "Address": "宜蘭縣羅東鄉興東南路220巷4號1樓",
    "Latitude": 24.6691214,
    "Longitude": 121.7707354,
    "Tel": "03-9545-768"
  },
  {
    "Name": "陽明動物醫院",
    "Address": "宜蘭縣羅東鄉興東路211號",
    "Latitude": 24.6821121,
    "Longitude": 121.7696097,
    "Tel": "03-956-3996"
  },
  {
    "Name": "台大動物醫院",
    "Address": "宜蘭縣羅東鄉愛國路86號",
    "Latitude": 24.6847777,
    "Longitude": 121.76709,
    "Tel": "03-954-8581"
  },
  {
    "Name": "挪亞動物醫院",
    "Address": "宜蘭縣羅東鄉純精路一段223號1樓",
    "Latitude": 24.6739571,
    "Longitude": 121.763442,
    "Tel": "03-951-9525"
  },
  {
    "Name": "羅東動物醫院",
    "Address": "宜蘭縣羅東鄉倉前路9號",
    "Latitude": 24.6810555,
    "Longitude": 121.7753298,
    "Tel": "03-954-7766"
  },
  {
    "Name": "季廷動物醫院",
    "Address": "宜蘭縣羅東鄉中山路2段415號",
    "Latitude": 24.675086,
    "Longitude": 121.7757303,
    "Tel": "03-953-3111"
  },
  {
    "Name": "宜蘭縣動植物防疫所",
    "Address": "宜蘭縣五結鄉成興村利寶路60號",
    "Latitude": 24.667123,
    "Longitude": 121.831205,
    "Tel": "03-9602-350"
  },
  {
    "Name": "旺旺動物醫院",
    "Address": "宜蘭縣五結鄉五結村自強路42巷91號",
    "Latitude": 24.6837577,
    "Longitude": 121.7955014,
    "Tel": "03-950-8736"
  },
  {
    "Name": "吉利動物醫院",
    "Address": "宜蘭縣蘇澳鎮中山路1段377號",
    "Latitude": 24.5958086,
    "Longitude": 121.8412372,
    "Tel": "03-995-1717"
  }
]