[
  {
    "Name": "回生動物醫院",
    "Address": "高雄市新興區新田路39號",
    "Latitude": 22.6234018,
    "Longitude": 120.3073579,
    "Tel": "07-2720688"
  },
  {
    "Name": "吉盈家畜醫院",
    "Address": "高雄市新興區民生一路34號",
    "Latitude": 22.628341,
    "Longitude": 120.311703,
    "Tel": "07-2267559"
  },
  {
    "Name": "萬祥犬專科醫院",
    "Address": "高雄市新興區民生一路196號",
    "Latitude": 22.627831,
    "Longitude": 120.308512,
    "Tel": "07-2274387"
  },
  {
    "Name": "人愛家畜醫院",
    "Address": "高雄市新興區六合一路30號",
    "Latitude": 22.6324567,
    "Longitude": 120.3114638,
    "Tel": "07-2371276"
  },
  {
    "Name": "弘恩動物醫院",
    "Address": "高雄市新興區五福二路152號",
    "Latitude": 22.625188,
    "Longitude": 120.3065454,
    "Tel": "07-2151123"
  },
  {
    "Name": "微笑動物醫院",
    "Address": "高雄市新興區七賢一路462號",
    "Latitude": 22.6345612,
    "Longitude": 120.304675,
    "Tel": "07-2368977"
  },
  {
    "Name": "立康動物醫院",
    "Address": "高雄市新興區七賢一路262號",
    "Latitude": 22.6340823,
    "Longitude": 120.3097672,
    "Tel": "07-2353057"
  },
  {
    "Name": "世全動物醫院",
    "Address": "高雄市前金區自強三路213號",
    "Latitude": 22.6191593,
    "Longitude": 120.2975437,
    "Tel": "07-2727077"
  },
  {
    "Name": "東海獸醫院",
    "Address": "高雄市前金區成功一路367號",
    "Latitude": 22.6253327,
    "Longitude": 120.293189,
    "Tel": "07-2510993"
  },
  {
    "Name": "銀星動物醫院",
    "Address": "高雄市前金區成功一路319號",
    "Latitude": 22.6232582,
    "Longitude": 120.2939844,
    "Tel": "07-2829549"
  },
  {
    "Name": "一嘉動物醫院",
    "Address": "高雄市苓雅區興中一路383號",
    "Latitude": 22.6160873,
    "Longitude": 120.306145,
    "Tel": "07-3318123"
  },
  {
    "Name": "惠光動物醫院",
    "Address": "高雄市苓雅區建國一路15-7號",
    "Latitude": 22.628952,
    "Longitude": 120.340305,
    "Tel": "07-7492401"
  },
  {
    "Name": "德洲動物醫院",
    "Address": "高雄市苓雅區金門街84號",
    "Latitude": 22.6263184,
    "Longitude": 120.3127218,
    "Tel": "07 223 1466"
  },
  {
    "Name": "勝杰動物醫院",
    "Address": "高雄市苓雅區成功一路163號",
    "Latitude": 22.616032,
    "Longitude": 120.296794,
    "Tel": "07-2696635"
  },
  {
    "Name": "旺旺動物醫院",
    "Address": "高雄市苓雅區忠孝二路55號",
    "Latitude": 22.618123,
    "Longitude": 120.308692,
    "Tel": "07-3331299"
  },
  {
    "Name": "耀宏家畜醫院",
    "Address": "高雄市苓雅區建國一路139-6號",
    "Latitude": 22.6322912,
    "Longitude": 120.3302554,
    "Tel": "07-7277999"
  },
  {
    "Name": "高生動物醫院",
    "Address": "高雄市苓雅區三多一路287號",
    "Latitude": 22.6219333,
    "Longitude": 120.3293803,
    "Tel": "07-7116899"
  },
  {
    "Name": "杜犬貓專科動物醫院",
    "Address": "高雄市苓雅區武廟路160-2號",
    "Latitude": 22.6312518,
    "Longitude": 120.3271194,
    "Tel": "07-7239587"
  },
  {
    "Name": "三和台大動物醫院",
    "Address": "高雄市苓雅區光華一路23號",
    "Latitude": 22.618877,
    "Longitude": 120.317362,
    "Tel": "07-3383828"
  },
  {
    "Name": "樂活動物醫院",
    "Address": "高雄市苓雅區同慶路108號",
    "Latitude": 22.6272872,
    "Longitude": 120.3199013,
    "Tel": "07-2298877"
  },
  {
    "Name": "柏林動物醫院",
    "Address": "高雄市苓雅區苓雅一路31號",
    "Latitude": 22.6223531,
    "Longitude": 120.3146933,
    "Tel": "07-5366010"
  },
  {
    "Name": "復興動物醫院",
    "Address": "高雄市苓雅區復興二路148號",
    "Latitude": 22.620464,
    "Longitude": 120.31032,
    "Tel": "07-3384507"
  },
  {
    "Name": "愛心動物醫院",
    "Address": "高雄市苓雅區建國一路74之1號",
    "Latitude": 22.6309508,
    "Longitude": 120.3352651,
    "Tel": "07-7156399"
  },
  {
    "Name": "健安動物醫院",
    "Address": "高雄市苓雅區建國一路270號",
    "Latitude": 22.6330827,
    "Longitude": 120.3267501,
    "Tel": "07-7238269"
  },
  {
    "Name": "成功動物醫院",
    "Address": "高雄市苓雅區武廟路155號",
    "Latitude": 22.6311484,
    "Longitude": 120.3260765,
    "Tel": "07-7152225"
  },
  {
    "Name": "上揚動物醫院",
    "Address": "高雄市苓雅區林森二路7-2號",
    "Latitude": 22.61615,
    "Longitude": 120.307999,
    "Tel": "07-3391010"
  },
  {
    "Name": "仁仁動物醫院",
    "Address": "高雄市苓雅區和平二路367號",
    "Latitude": 22.6169195,
    "Longitude": 120.3224217,
    "Tel": "07-7215778"
  },
  {
    "Name": "和平動物醫院",
    "Address": "高雄市苓雅區和平一路60號",
    "Latitude": 22.6214635,
    "Longitude": 120.3215559,
    "Tel": "07-7253347"
  },
  {
    "Name": "忠信動物醫院",
    "Address": "高雄市苓雅區和平一路149之13號",
    "Latitude": 22.6246267,
    "Longitude": 120.3199721,
    "Tel": "07-7225766"
  },
  {
    "Name": "三和動物醫院",
    "Address": "高雄市苓雅區光華一路23號",
    "Latitude": 22.618877,
    "Longitude": 120.317362,
    "Tel": "07-3383828"
  },
  {
    "Name": "加州動物醫院",
    "Address": "高雄市苓雅區光華一路134號",
    "Latitude": 22.621196,
    "Longitude": 120.316856,
    "Tel": "07-7163027"
  },
  {
    "Name": "亞幸動物醫院",
    "Address": "高雄市苓雅區光華一路12-1號",
    "Latitude": 22.620303,
    "Longitude": 120.317858,
    "Tel": "07-7265577"
  },
  {
    "Name": "台安動物醫院",
    "Address": "高雄市苓雅區四維二路96之3號",
    "Latitude": 22.622466,
    "Longitude": 120.319003,
    "Tel": "07-7715270"
  },
  {
    "Name": "大順動物醫院",
    "Address": "高雄市苓雅區大順三路230號1樓",
    "Latitude": 22.6346969,
    "Longitude": 120.3265321,
    "Tel": "07-7529642"
  },
  {
    "Name": "萊德動物醫院",
    "Address": "高雄市苓雅區三多一路130號",
    "Latitude": 22.6231083,
    "Longitude": 120.3317948,
    "Tel": "07-7527550"
  },
  {
    "Name": "有村動物醫院",
    "Address": "高雄市鼓山區篤敬路1號",
    "Latitude": 22.6634738,
    "Longitude": 120.302425,
    "Tel": "07-5551100"
  },
  {
    "Name": "宏仁動物醫院",
    "Address": "高雄市鼓山區中華一路2號",
    "Latitude": 22.654046,
    "Longitude": 120.291632,
    "Tel": "07- 587-7588"
  },
  {
    "Name": "中興農十六動物醫院",
    "Address": "高雄市鼓山區大順一路935號",
    "Latitude": 22.654665,
    "Longitude": 120.297995,
    "Tel": "07-5503532"
  },
  {
    "Name": "長庚家畜醫院",
    "Address": "高雄市鼓山區鼓山一路31之2號",
    "Latitude": 22.6249522,
    "Longitude": 120.2761861,
    "Tel": "07-5318288"
  },
  {
    "Name": "大揚動物醫院",
    "Address": "高雄市鼓山區華榮路240之6號",
    "Latitude": 22.6650071,
    "Longitude": 120.2971304,
    "Tel": "07-5521133"
  },
  {
    "Name": "富恩動物醫院",
    "Address": "高雄市鼓山區文忠路135號",
    "Latitude": 22.6651002,
    "Longitude": 120.297693,
    "Tel": "07-5502881"
  },
  {
    "Name": "博聯動物醫院",
    "Address": "高雄市鼓山區中華一路350號",
    "Latitude": 22.661571,
    "Longitude": 120.292092,
    "Tel": "07-5229169"
  },
  {
    "Name": "高雄動物醫院",
    "Address": "高雄市鼓山區中華一路349號",
    "Latitude": 22.658739,
    "Longitude": 120.292756,
    "Tel": "07-5552331"
  },
  {
    "Name": "嘉仁動物醫院",
    "Address": "高雄市鼓山區九如四路1658號",
    "Latitude": 22.663789,
    "Longitude": 120.2831179,
    "Tel": "07-5876094"
  },
  {
    "Name": "阿宅動物醫院",
    "Address": "高雄市前鎮區正勤路9號",
    "Latitude": 22.602252,
    "Longitude": 120.303139,
    "Tel": "07 536 8580"
  },
  {
    "Name": "登群動物醫院",
    "Address": "高雄市前鎮區瑞隆路228號",
    "Latitude": 22.6057413,
    "Longitude": 120.3337852,
    "Tel": "07-7276739"
  },
  {
    "Name": "恩茂動物醫院",
    "Address": "高雄市前鎮區復興三路313號1-2樓",
    "Latitude": 22.61246,
    "Longitude": 120.311131,
    "Tel": "07-3344206"
  },
  {
    "Name": "草衙動物醫院",
    "Address": "高雄市前鎮區草衙二路497號",
    "Latitude": 22.580851,
    "Longitude": 120.32281,
    "Tel": "07-8152753"
  },
  {
    "Name": "天仁動物醫院",
    "Address": "高雄市前鎮區草衙一路17號",
    "Latitude": 22.584238,
    "Longitude": 120.321991,
    "Tel": "07-8410318"
  },
  {
    "Name": "吉生動物醫院",
    "Address": "高雄市前鎮區永豐路92號",
    "Latitude": 22.6060681,
    "Longitude": 120.3336425,
    "Tel": "07-7253546"
  },
  {
    "Name": "健生動物醫院",
    "Address": "高雄市前鎮區一心一路275號",
    "Latitude": 22.6095492,
    "Longitude": 120.3142573,
    "Tel": "07-3351487"
  },
  {
    "Name": "育澤獸醫",
    "Address": "高雄市三民區綏遠二街244巷26號",
    "Latitude": 22.6499925,
    "Longitude": 120.2975117,
    "Tel": "07-3151270"
  },
  {
    "Name": "蓋亞野生動物專科醫院",
    "Address": "高雄市三民區建工路611號",
    "Latitude": 22.6481341,
    "Longitude": 120.3191231,
    "Tel": "07 392 9353"
  },
  {
    "Name": "十銓動物醫院",
    "Address": "高雄市三民區十全二路99號",
    "Latitude": 22.645485,
    "Longitude": 120.3002077,
    "Tel": "07-3113797"
  },
  {
    "Name": "信德動物醫院",
    "Address": "高雄市三民區十全二路357號",
    "Latitude": 22.645941,
    "Longitude": 120.29296,
    "Tel": "07-3213016"
  },
  {
    "Name": "河堤動物醫院",
    "Address": "高雄市三民區民族一路529-6號",
    "Latitude": 22.6658083,
    "Longitude": 120.3163487,
    "Tel": "07-3102803"
  },
  {
    "Name": "藍天動物醫院",
    "Address": "高雄市三民區北平一街175號",
    "Latitude": 22.6499614,
    "Longitude": 120.3039228,
    "Tel": "07-3229200"
  },
  {
    "Name": "永安動物醫療聯盟",
    "Address": "高雄市三民區九如一路998號",
    "Latitude": 22.640501,
    "Longitude": 120.315157,
    "Tel": "07-3853456"
  },
  {
    "Name": "惠民動物醫院",
    "Address": "高雄市三民區嫩江街58號",
    "Latitude": 22.642572,
    "Longitude": 120.298482,
    "Tel": "07-3161300"
  },
  {
    "Name": "全家福動物醫院",
    "Address": "高雄市三民區義華路51號",
    "Latitude": 22.642029,
    "Longitude": 120.343829,
    "Tel": "07-3845936"
  },
  {
    "Name": "加康動物醫院",
    "Address": "高雄市三民區覺民路524號",
    "Latitude": 22.640919,
    "Longitude": 120.330752,
    "Tel": "07-3860506"
  },
  {
    "Name": "進興動物醫院",
    "Address": "高雄市三民區九如一路200號",
    "Latitude": 22.6374631,
    "Longitude": 120.3385072,
    "Tel": "07-3872039"
  },
  {
    "Name": "聯合動物醫院",
    "Address": "高雄市三民區覺民路74號",
    "Latitude": 22.6391349,
    "Longitude": 120.3424084,
    "Tel": "07-3963977"
  },
  {
    "Name": "張動物醫院",
    "Address": "高雄市三民區澄清路529號",
    "Latitude": 22.6423055,
    "Longitude": 120.345638,
    "Tel": "07-3815680"
  },
  {
    "Name": "惠明動物醫院",
    "Address": "高雄市三民區嫩江街58號",
    "Latitude": 22.642572,
    "Longitude": 120.298482,
    "Tel": "07-3161300"
  },
  {
    "Name": "健中動物醫院",
    "Address": "高雄市三民區鼎中路230號",
    "Latitude": 22.6633525,
    "Longitude": 120.319444,
    "Tel": "07-3474315"
  },
  {
    "Name": "鼎山動物醫院",
    "Address": "高雄市三民區鼎山街466號",
    "Latitude": 22.654699,
    "Longitude": 120.319469,
    "Tel": "07-3831359"
  },
  {
    "Name": "東盟動物醫院",
    "Address": "高雄市三民區鼎力路246號",
    "Latitude": 22.667917,
    "Longitude": 120.32308,
    "Tel": "07-3474475"
  },
  {
    "Name": "龍樺動物醫院",
    "Address": "高雄市三民區裕誠路102號",
    "Latitude": 22.6639946,
    "Longitude": 120.3130838,
    "Tel": "07-3594649"
  },
  {
    "Name": "義華動物醫院",
    "Address": "高雄市三民區義華路342號",
    "Latitude": 22.6436805,
    "Longitude": 120.3345174,
    "Tel": "07-3839683"
  },
  {
    "Name": "琍生動物醫院",
    "Address": "高雄市三民區博愛一路273號",
    "Latitude": 22.648703,
    "Longitude": 120.303012,
    "Tel": "07-3236626"
  },
  {
    "Name": "台大綜合動物醫院",
    "Address": "高雄市三民區博愛一路115號",
    "Latitude": 22.644642,
    "Longitude": 120.302769,
    "Tel": "07-3111576"
  },
  {
    "Name": "安生動物醫院",
    "Address": "高雄市三民區建國三路278號",
    "Latitude": 22.635603,
    "Longitude": 120.28845,
    "Tel": "07-2166677"
  },
  {
    "Name": "正耘動物醫院",
    "Address": "高雄市三民區建國三路207號",
    "Latitude": 22.6376793,
    "Longitude": 120.2973347,
    "Tel": "07-2857688"
  },
  {
    "Name": "永吉動物醫院",
    "Address": "高雄市三民區建工路695號",
    "Latitude": 22.647719,
    "Longitude": 120.317082,
    "Tel": "07-3805131"
  },
  {
    "Name": "立安動物醫院",
    "Address": "高雄市三民區建工路559號",
    "Latitude": 22.6484792,
    "Longitude": 120.3209892,
    "Tel": "07-3964739"
  },
  {
    "Name": "明誠動物醫院",
    "Address": "高雄市三民區明誠一路816號",
    "Latitude": 22.6597523,
    "Longitude": 120.3171186,
    "Tel": "07-3107276"
  },
  {
    "Name": "宏力動物醫院",
    "Address": "高雄市三民區明誠一路326號",
    "Latitude": 22.659977,
    "Longitude": 120.324799,
    "Tel": "07-3102819"
  },
  {
    "Name": "誠宏動物醫院",
    "Address": "高雄市三民區民族一路300號",
    "Latitude": 22.650458,
    "Longitude": 120.315267,
    "Tel": "07-3841883"
  },
  {
    "Name": "順仁動物醫院",
    "Address": "高雄市三民區正忠路101號",
    "Latitude": 22.6431357,
    "Longitude": 120.3301883,
    "Tel": "07-3844808"
  },
  {
    "Name": "北平動物醫院",
    "Address": "高雄市三民區北平二街111號",
    "Latitude": 22.650298,
    "Longitude": 120.299674,
    "Tel": "07-3237226"
  },
  {
    "Name": "日康動物醫院",
    "Address": "高雄市三民區天祥一路183號",
    "Latitude": 22.667671,
    "Longitude": 120.318324,
    "Tel": "07-3100111"
  },
  {
    "Name": "新光動物醫院",
    "Address": "高雄市三民區大豐二路290號",
    "Latitude": 22.645514,
    "Longitude": 120.332992,
    "Tel": "07-3905656"
  },
  {
    "Name": "中興動物醫院",
    "Address": "高雄市三民區大豐二路118-1號",
    "Latitude": 22.645787,
    "Longitude": 120.3294465,
    "Tel": "07-3844631"
  },
  {
    "Name": "興德動物醫院",
    "Address": "高雄市三民區三民街118號",
    "Latitude": 22.636251,
    "Longitude": 120.293529,
    "Tel": "07-2863471"
  },
  {
    "Name": "慈愛動物醫院－九如分院",
    "Address": "高雄市三民區九如ㄧ路458號",
    "Latitude": 22.6390525,
    "Longitude": 120.3294752,
    "Tel": "07-3871966"
  },
  {
    "Name": "勇翔動物醫院",
    "Address": "高雄市楠梓區常德路308號",
    "Latitude": 22.736881,
    "Longitude": 120.337225,
    "Tel": "07-3514242"
  },
  {
    "Name": "寵愛動物醫院",
    "Address": "高雄市楠梓區後勁西路236號",
    "Latitude": 22.7214795,
    "Longitude": 120.3148803,
    "Tel": "07-3661333"
  },
  {
    "Name": "偉源動物醫院",
    "Address": "高雄市楠梓區後昌路1048號",
    "Latitude": 22.716787,
    "Longitude": 120.292819,
    "Tel": "07-3649336"
  },
  {
    "Name": "莒光動物醫院",
    "Address": "高雄市楠梓區加昌路849-851號",
    "Latitude": 22.713443,
    "Longitude": 120.293403,
    "Tel": "07-3640207"
  },
  {
    "Name": "尚大動物醫院",
    "Address": "高雄市小港區漢民路281號",
    "Latitude": 22.567024,
    "Longitude": 120.353601,
    "Tel": "07-8019595"
  },
  {
    "Name": "名人動物醫院",
    "Address": "高雄市小港區沿海一路202號",
    "Latitude": 22.566633,
    "Longitude": 120.35161,
    "Tel": "07-8017602"
  },
  {
    "Name": "聖心動物醫院",
    "Address": "高雄市小港區宏平路360號",
    "Latitude": 22.57012,
    "Longitude": 120.35919,
    "Tel": "07-8033158"
  },
  {
    "Name": "崇仁動物醫院",
    "Address": "高雄市小港區平和路43號",
    "Latitude": 22.5641197,
    "Longitude": 120.3341592,
    "Tel": "07-8225655"
  },
  {
    "Name": "桂林動物醫院",
    "Address": "高雄市小港區中安路598號",
    "Latitude": 22.584786,
    "Longitude": 120.357157,
    "Tel": "07-7910592"
  },
  {
    "Name": "捷飛達動物醫院",
    "Address": "高雄市左營區榮總路396號",
    "Latitude": 22.685274,
    "Longitude": 120.3218974,
    "Tel": "07-3463666"
  },
  {
    "Name": "大其動物醫院",
    "Address": "高雄市左營區嘉慶街46號",
    "Latitude": 22.6589488,
    "Longitude": 120.3067575,
    "Tel": "07-5584913"
  },
  {
    "Name": "貓狗大棧動物醫院",
    "Address": "高雄市左營區新庄子路556號",
    "Latitude": 22.6696518,
    "Longitude": 120.3050999,
    "Tel": "07-5565491"
  },
  {
    "Name": "慈愛動物醫院－博愛分院",
    "Address": "高雄市左營區博愛三路180號",
    "Latitude": 22.6750342,
    "Longitude": 120.3058116,
    "Tel": "07-3498234"
  },
  {
    "Name": "心心動物診所",
    "Address": "高雄市左營區博愛二路202號",
    "Latitude": 22.6600733,
    "Longitude": 120.3033008,
    "Tel": "07-5563972"
  },
  {
    "Name": "百祥動物醫院",
    "Address": "高雄市左營區明誠二路204號",
    "Latitude": 22.6611909,
    "Longitude": 120.3095396,
    "Tel": "07-5585391"
  },
  {
    "Name": "柏正動物醫院",
    "Address": "高雄市左營區忠言路181號",
    "Latitude": 22.6581657,
    "Longitude": 120.3048432,
    "Tel": "07-5581411"
  },
  {
    "Name": "樂生動物醫院",
    "Address": "高雄市左營區自由三路538號",
    "Latitude": 22.6784601,
    "Longitude": 120.313745,
    "Tel": "07-3450202"
  },
  {
    "Name": "勝泰動物醫院",
    "Address": "高雄市左營區自由二路182號",
    "Latitude": 22.66308,
    "Longitude": 120.308519,
    "Tel": "07-5585889"
  },
  {
    "Name": "博安家畜醫院",
    "Address": "高雄市左營區左營大路209號",
    "Latitude": 22.6855256,
    "Longitude": 120.2897716,
    "Tel": "07-5830479"
  },
  {
    "Name": "聖愛動物醫院",
    "Address": "高雄市左營區中華一路3-1號",
    "Latitude": 22.6702941,
    "Longitude": 120.2868366,
    "Tel": "07-5874211"
  },
  {
    "Name": "捷飛達賽鴿寵物鳥醫院",
    "Address": "高雄市仁武區鳳仁路81-53號",
    "Latitude": 22.6847117,
    "Longitude": 120.3534829,
    "Tel": "07-3744362"
  },
  {
    "Name": "長安動物醫院",
    "Address": "高雄市仁武區仁雄路272巷17號",
    "Latitude": 22.6761002,
    "Longitude": 120.3374416,
    "Tel": "07-3720780"
  },
  {
    "Name": "傑美動物醫院",
    "Address": "高雄市仁武區仁忠路192號",
    "Latitude": 22.6801985,
    "Longitude": 120.3543805,
    "Tel": "07-3741284"
  },
  {
    "Name": "仁安動物醫院",
    "Address": "高雄市仁武區中華路205號",
    "Latitude": 22.6998672,
    "Longitude": 120.3506492,
    "Tel": "07-3744362"
  },
  {
    "Name": "吉祥動物醫院",
    "Address": "高雄市仁武區大灣里八德南路576號",
    "Latitude": 22.6760904,
    "Longitude": 120.3409118,
    "Tel": "07-3712718"
  },
  {
    "Name": "大社動物醫院",
    "Address": "高雄市大社區三民路244號",
    "Latitude": 22.7265221,
    "Longitude": 120.3485206,
    "Tel": "07-3511111"
  },
  {
    "Name": "忠興動物醫院",
    "Address": "高雄市大社區中山路98號",
    "Latitude": 22.7320804,
    "Longitude": 120.3459681,
    "Tel": "07-3510588"
  },
  {
    "Name": "岡山安生動物醫院",
    "Address": "高雄市岡山區公園西路二段144號",
    "Latitude": 22.7972479,
    "Longitude": 120.286297,
    "Tel": "07-626-6543"
  },
  {
    "Name": "大豐獸醫院",
    "Address": "高雄市岡山區復興北路3號",
    "Latitude": 22.7522539,
    "Longitude": 120.2464616,
    "Tel": "07-6224745"
  },
  {
    "Name": "宏興家畜醫院",
    "Address": "高雄市岡山區大義二路316號",
    "Latitude": 22.787216,
    "Longitude": 120.28581,
    "Tel": "07-6257681"
  },
  {
    "Name": "博愛獸醫院",
    "Address": "高雄市岡山區壽天路125號",
    "Latitude": 22.7942587,
    "Longitude": 120.2909834,
    "Tel": "07-6217769"
  },
  {
    "Name": "福星犬醫院",
    "Address": "高雄市岡山區公園北路21巷7號",
    "Latitude": 22.7995154,
    "Longitude": 120.2890551,
    "Tel": "07-6213588"
  },
  {
    "Name": "劉文監家畜醫院",
    "Address": "高雄市岡山區介壽路10巷25弄9-24號",
    "Latitude": 22.784613,
    "Longitude": 120.29062,
    "Tel": "07-6253535"
  },
  {
    "Name": "安生動物醫院",
    "Address": "高雄市岡山區公園西路二段144號",
    "Latitude": 22.7972479,
    "Longitude": 120.286297,
    "Tel": "07-6266543"
  },
  {
    "Name": "福壽家畜醫院",
    "Address": "高雄市岡山區高雄市 岡山區正言街68號",
    "Latitude": 22.7915133,
    "Longitude": 120.2858189,
    "Tel": "07-6262959"
  },
  {
    "Name": "岡山博仁動物醫院",
    "Address": "高雄市岡山區公園西路3段92號",
    "Latitude": 22.794021,
    "Longitude": 120.2843645,
    "Tel": "07-6250777"
  },
  {
    "Name": "家福動物醫院",
    "Address": "高雄市岡山區岡山路612-25號",
    "Latitude": 22.8035999,
    "Longitude": 120.29,
    "Tel": "07-6218255"
  },
  {
    "Name": "民族動物醫院",
    "Address": "高雄市岡山區岡山路359號",
    "Latitude": 22.7982091,
    "Longitude": 120.2950089,
    "Tel": "07-6227399"
  },
  {
    "Name": "合美動物醫院",
    "Address": "高雄市岡山區中華路13-5號",
    "Latitude": 22.7916105,
    "Longitude": 120.2883204,
    "Tel": "07-6270699"
  },
  {
    "Name": "弘苑動物醫院",
    "Address": "高雄市岡山區介壽西路129號",
    "Latitude": 22.784211,
    "Longitude": 120.28169,
    "Tel": "07-6259310"
  },
  {
    "Name": "廣旭動物醫院",
    "Address": "高雄市路竹區一甲路30號",
    "Latitude": 22.873742,
    "Longitude": 120.2531462,
    "Tel": "07-6968328"
  },
  {
    "Name": "路竹動物醫院",
    "Address": "高雄市路竹區中山路468號",
    "Latitude": 22.8621025,
    "Longitude": 120.2582921,
    "Tel": "07-6960771"
  },
  {
    "Name": "志寶動物醫院",
    "Address": "高雄市阿蓮區港後路26之13號",
    "Latitude": 22.8720711,
    "Longitude": 120.316533,
    "Tel": "07-6361661"
  },
  {
    "Name": "栖碧家畜診所",
    "Address": "高雄市阿蓮區民生路131巷27號",
    "Latitude": 22.8815886,
    "Longitude": 120.3271751,
    "Tel": "07-6312832"
  },
  {
    "Name": "路竹動物醫院",
    "Address": "高雄市阿蓮區忠孝路201巷6號",
    "Latitude": 22.8785698,
    "Longitude": 120.3295705,
    "Tel": "07-6963311"
  },
  {
    "Name": "醫牧家畜診所",
    "Address": "高雄市阿蓮區青旗村220-2號",
    "Latitude": 22.891349,
    "Longitude": 120.318966,
    "Tel": "07-6312732"
  },
  {
    "Name": "元碩動物醫院",
    "Address": "高雄市阿蓮區中山路268號",
    "Latitude": 22.8752423,
    "Longitude": 120.32691,
    "Tel": "07-6311831"
  },
  {
    "Name": "嘉隆動物醫院",
    "Address": "高雄市橋頭區成功北路95號",
    "Latitude": 22.7640161,
    "Longitude": 120.3076094,
    "Tel": "07-6125288"
  },
  {
    "Name": "家和動物醫院",
    "Address": "高雄市橋頭區隆豐路223號",
    "Latitude": 22.753227,
    "Longitude": 120.3077602,
    "Tel": "07-6110601"
  },
  {
    "Name": "統一家畜醫院",
    "Address": "高雄市梓官區赤崁南路134號",
    "Latitude": 22.7346484,
    "Longitude": 120.2491823,
    "Tel": "07-6101895"
  },
  {
    "Name": "大豐獸醫院",
    "Address": "高雄市彌陀區中正路1巷22號",
    "Latitude": 22.7786426,
    "Longitude": 120.2494746,
    "Tel": "07-6175450"
  },
  {
    "Name": "慶祥家畜醫院",
    "Address": "高雄市永安區保安路42號",
    "Latitude": 22.810732,
    "Longitude": 120.2432535,
    "Tel": "07-6913669"
  },
  {
    "Name": "國泰動物醫院",
    "Address": "高雄市湖內區中山路二段300號",
    "Latitude": 22.9109614,
    "Longitude": 120.2265792,
    "Tel": "07-6996729"
  },
  {
    "Name": "國泰動物醫院",
    "Address": "高雄市湖內區大湖村中山路一段420巷2之1號",
    "Latitude": 22.8853385,
    "Longitude": 120.2471719,
    "Tel": "07-6936155"
  },
  {
    "Name": "謝白潛獸醫診所",
    "Address": "高雄市湖內區中山路一段492號",
    "Latitude": 22.8935245,
    "Longitude": 120.2411408,
    "Tel": "07-6933359"
  },
  {
    "Name": "高民動物醫院",
    "Address": "高雄市鳳山區中山西路217之1號",
    "Latitude": 22.6275971,
    "Longitude": 120.3488886,
    "Tel": "07 7991388"
  },
  {
    "Name": "新民動物醫院",
    "Address": "高雄市鳳山區新富路326號",
    "Latitude": 22.61269,
    "Longitude": 120.3425268,
    "Tel": "07-7659787"
  },
  {
    "Name": "凱帝動物醫院",
    "Address": "高雄市鳳山區鳳頂路368號",
    "Latitude": 22.5945699,
    "Longitude": 120.3591136,
    "Tel": "07-7920254"
  },
  {
    "Name": "立和動物診所",
    "Address": "高雄市鳳山區維新路153號",
    "Latitude": 22.6252971,
    "Longitude": 120.3615638,
    "Tel": "07-7423811"
  },
  {
    "Name": "吉安動物醫院",
    "Address": "高雄市鳳山區經武路346號",
    "Latitude": 22.6399513,
    "Longitude": 120.3646528,
    "Tel": "07-7428829"
  },
  {
    "Name": "光復動物醫院",
    "Address": "高雄市鳳山區經武路206號",
    "Latitude": 22.636909,
    "Longitude": 120.3643599,
    "Tel": "07-7472837"
  },
  {
    "Name": "大興動物醫院",
    "Address": "高雄市鳳山區經五路135號",
    "Latitude": 22.634304,
    "Longitude": 120.3634946,
    "Tel": "07-7464183"
  },
  {
    "Name": "泰安動物醫院",
    "Address": "高雄市鳳山區瑞隆東路266號",
    "Latitude": 22.6062589,
    "Longitude": 120.3391497,
    "Tel": "07-7529529"
  },
  {
    "Name": "希望動物醫院",
    "Address": "高雄市鳳山區凱旋路100號",
    "Latitude": 22.6074961,
    "Longitude": 120.3588709,
    "Tel": "07-7537300"
  },
  {
    "Name": "永安動物醫院",
    "Address": "高雄市鳳山區建國路三段16號",
    "Latitude": 22.6367029,
    "Longitude": 120.356233,
    "Tel": "07-7766337"
  },
  {
    "Name": "安華動物醫院",
    "Address": "高雄市鳳山區青年路二段580號",
    "Latitude": 22.6461255,
    "Longitude": 120.3488991,
    "Tel": "07-7670330"
  },
  {
    "Name": "米可動物醫院",
    "Address": "高雄市鳳山區青年路二段320號",
    "Latitude": 22.6402911,
    "Longitude": 120.3512149,
    "Tel": "07-7801738"
  },
  {
    "Name": "安心動物醫院",
    "Address": "高雄市鳳山區武慶二路74號",
    "Latitude": 22.6115979,
    "Longitude": 120.332822,
    "Tel": "07-7275266"
  },
  {
    "Name": "國際動物醫院",
    "Address": "高雄市鳳山區光遠路254號",
    "Latitude": 22.625548,
    "Longitude": 120.362421,
    "Tel": "07-7439000"
  },
  {
    "Name": "惠康動物醫院",
    "Address": "高雄市鳳山區光遠路18號",
    "Latitude": 22.623304,
    "Longitude": 120.367681,
    "Tel": "07-7190092"
  },
  {
    "Name": "慈濟動物醫院",
    "Address": "高雄市鳳山區五甲三路179號",
    "Latitude": 22.59055,
    "Longitude": 120.325053,
    "Tel": "07-8114023"
  },
  {
    "Name": "凡賽爾動物醫院",
    "Address": "高雄市鳳山區五甲二路399號",
    "Latitude": 22.5976178,
    "Longitude": 120.3352826,
    "Tel": "07-7613995"
  },
  {
    "Name": "全宏動物醫院",
    "Address": "高雄市鳳山區五甲二路135號",
    "Latitude": 22.6015215,
    "Longitude": 120.3410215,
    "Tel": "07-7685168"
  },
  {
    "Name": "宏仁家畜醫院",
    "Address": "高雄市鳳山區五甲一路220號",
    "Latitude": 22.6184833,
    "Longitude": 120.3549825,
    "Tel": "07-7464215"
  },
  {
    "Name": "人人動物醫院",
    "Address": "高雄市大寮區鳳林三路 807 號",
    "Latitude": 22.6125965,
    "Longitude": 120.3906333,
    "Tel": "07-7830515"
  },
  {
    "Name": "永興動物醫院",
    "Address": "高雄市大寮區中興路5巷17號",
    "Latitude": 22.6196382,
    "Longitude": 120.3852432,
    "Tel": "07-7823795"
  },
  {
    "Name": "明星動物醫院",
    "Address": "高雄市大寮區山頂村內厝路365號8樓",
    "Latitude": 22.6096929,
    "Longitude": 120.3879228,
    "Tel": "07-7815475"
  },
  {
    "Name": "鳳屏動物醫院",
    "Address": "高雄市大寮區鳳屏一路552號",
    "Latitude": 22.6371741,
    "Longitude": 120.3941816,
    "Tel": "07-7018987"
  },
  {
    "Name": "福泰家畜醫院",
    "Address": "高雄市林園區中厝村中厝路 33-1 號",
    "Latitude": 22.5279592,
    "Longitude": 120.3982691,
    "Tel": "07-6422679"
  },
  {
    "Name": "青峰獸醫院",
    "Address": "高雄市林園區福興街137號",
    "Latitude": 22.5059958,
    "Longitude": 120.3942482,
    "Tel": "07-6438478"
  },
  {
    "Name": "林園動物醫院",
    "Address": "高雄市林園區林園北路434號",
    "Latitude": 22.5140615,
    "Longitude": 120.3950783,
    "Tel": "07-6422679"
  },
  {
    "Name": "啟生獸醫院",
    "Address": "高雄市鳥松區本館路 188 號",
    "Latitude": 22.655563,
    "Longitude": 120.3360646,
    "Tel": "07-3812720"
  },
  {
    "Name": "富貴動物醫院",
    "Address": "高雄市大樹區中興南路119號",
    "Latitude": 22.6882048,
    "Longitude": 120.4324257,
    "Tel": "07-6519019"
  },
  {
    "Name": "富貴動物醫院",
    "Address": "高雄市大樹區中興南路119號",
    "Latitude": 22.6882048,
    "Longitude": 120.4324257,
    "Tel": "07-6519019"
  },
  {
    "Name": "慶達獸醫院",
    "Address": "高雄市旗山區延平一路748號",
    "Latitude": 22.8823439,
    "Longitude": 120.4840746,
    "Tel": "07-6621800"
  },
  {
    "Name": "圓富家畜醫院",
    "Address": "高雄市旗山區高雄市 旗山區旗甲路二段154號",
    "Latitude": 22.9186566,
    "Longitude": 120.4955842,
    "Tel": "07-6691150"
  },
  {
    "Name": "安生動物醫院",
    "Address": "高雄市旗山區延平一路65巷29號",
    "Latitude": 22.899384,
    "Longitude": 120.481106,
    "Tel": "07-6614871"
  },
  {
    "Name": "永興動物醫院",
    "Address": "高雄市旗山區旗甲路二段231號",
    "Latitude": 22.920336,
    "Longitude": 120.495924,
    "Tel": "07-6691285"
  },
  {
    "Name": "中山動物醫院",
    "Address": "高雄市旗山區中山路41號",
    "Latitude": 22.8863521,
    "Longitude": 120.48197,
    "Tel": "07-7192161"
  },
  {
    "Name": "惠犬獸醫院",
    "Address": "高雄市旗山區中山西路62號",
    "Latitude": 22.88681,
    "Longitude": 120.482117,
    "Tel": "07-7413062"
  },
  {
    "Name": "旺旺動物醫院",
    "Address": "高雄市旗山區延平一路351號",
    "Latitude": 22.8921433,
    "Longitude": 120.4837113,
    "Tel": "07-6611100"
  },
  {
    "Name": "安安動物醫院",
    "Address": "高雄市旗山區延平一路268號",
    "Latitude": 22.893745,
    "Longitude": 120.4832308,
    "Tel": "07-6623175"
  },
  {
    "Name": "張家畜診療所",
    "Address": "高雄市美濃區永安路40-4號",
    "Latitude": 22.8976197,
    "Longitude": 120.5471292,
    "Tel": "07-6812330"
  },
  {
    "Name": "林牧動物診所",
    "Address": "高雄市杉林區新庄村司馬路79號",
    "Latitude": 22.9896136,
    "Longitude": 120.5661479,
    "Tel": "07-6771340"
  }
]