[
  {
    "Name": "汎汶動物醫院",
    "Address": "基隆市仁愛區仁四路17之1號",
    "Latitude": 25.1274576,
    "Longitude": 121.7426718,
    "Tel": "02-2426-0870"
  },
  {
    "Name": "新興動物醫院",
    "Address": "基隆市仁愛區仁一路117號",
    "Latitude": 25.127732,
    "Longitude": 121.752998,
    "Tel": "02-2429-5636"
  },
  {
    "Name": "中興動物醫院",
    "Address": "基隆市仁愛區仁二路138號1樓",
    "Latitude": 25.1281443,
    "Longitude": 121.7461549,
    "Tel": "02-2426-2900"
  },
  {
    "Name": "仁愛家畜醫院",
    "Address": "基隆市仁愛區孝二路35號",
    "Latitude": 25.1288374,
    "Longitude": 121.7394344,
    "Tel": "02-24287653"
  },
  {
    "Name": "仁愛犬貓醫院",
    "Address": "基隆市仁愛區忠四路8號",
    "Latitude": 25.128134,
    "Longitude": 121.739842,
    "Tel": "02-2428-7653"
  },
  {
    "Name": "嘉惠家畜醫院",
    "Address": "基隆市仁愛區南榮路140號",
    "Latitude": 25.1182845,
    "Longitude": 121.7435092,
    "Tel": "02-2422-3687"
  },
  {
    "Name": "台大長鴻動物醫院",
    "Address": "基隆市仁愛區仁一路139號",
    "Latitude": 25.1277699,
    "Longitude": 121.752346,
    "Tel": "02-2426-1456"
  },
  {
    "Name": "祥恩動物醫院",
    "Address": "基隆市信義區深美街87號",
    "Latitude": 25.1355013,
    "Longitude": 121.7802892,
    "Tel": "02-2465-5632"
  },
  {
    "Name": "林犬貓專科醫院",
    "Address": "基隆市信義區信二路106號",
    "Latitude": 25.1292782,
    "Longitude": 121.7552586,
    "Tel": "02-2429-1552"
  },
  {
    "Name": "旺旺動物醫院",
    "Address": "基隆市信義區中興路26號",
    "Latitude": 25.1297597,
    "Longitude": 121.7545763,
    "Tel": "02-2427-0563"
  },
  {
    "Name": "東尚動物醫院",
    "Address": "基隆市信義區東明路159號",
    "Latitude": 25.1276447,
    "Longitude": 121.760251,
    "Tel": "02-2465-3088"
  },
  {
    "Name": "新興動物醫院",
    "Address": "基隆市信義區仁一路117號",
    "Latitude": 25.127732,
    "Longitude": 121.752998,
    "Tel": "02-2429-5636"
  },
  {
    "Name": "和平動物醫院",
    "Address": "基隆市中正區中正路776號",
    "Latitude": 25.1517579,
    "Longitude": 121.7704495,
    "Tel": "02-2463-2335"
  },
  {
    "Name": "基隆愛犬醫院",
    "Address": "基隆市中正區義一路188號",
    "Latitude": 25.1363955,
    "Longitude": 121.7481604,
    "Tel": "02-2422-9214"
  },
  {
    "Name": "犬貓屋動物醫院",
    "Address": "基隆市安樂區基金一路118號1樓",
    "Latitude": 25.1403845,
    "Longitude": 121.7123588,
    "Tel": "02-2434-5975"
  },
  {
    "Name": "慈仁動物醫院",
    "Address": "基隆市安樂區107號",
    "Latitude": 25.1286437,
    "Longitude": 121.7333486,
    "Tel": "02-2428-6899"
  },
  {
    "Name": "碇內動物醫院",
    "Address": "基隆市暖暖區源遠路165之7號一樓",
    "Latitude": 25.0984698,
    "Longitude": 121.7498679,
    "Tel": "02-2459-2345"
  },
  {
    "Name": "七堵動物醫院",
    "Address": "基隆市七堵區明德一路125號",
    "Latitude": 25.09773,
    "Longitude": 121.71472,
    "Tel": "02-2456-5942"
  },
  {
    "Name": "小太陽動物醫院",
    "Address": "基隆市中山區成功二路171號",
    "Latitude": 25.131372,
    "Longitude": 121.735287,
    "Tel": "02-2427-7664"
  },
  {
    "Name": "成安動物醫院",
    "Address": "基隆市中山區成功二路54號",
    "Latitude": 25.130197,
    "Longitude": 121.7359646,
    "Tel": "02-2423-3739"
  }
]