[
  {
    "Name": "太原動物醫院",
    "Address": "苗栗縣竹南鎮中正路159號",
    "Latitude": 24.6836752,
    "Longitude": 120.8753918,
    "Tel": "037-505754"
  },
  {
    "Name": "中南家畜中心",
    "Address": "苗栗縣竹南鎮博愛街153號",
    "Latitude": 24.6866801,
    "Longitude": 120.874816,
    "Tel": "037-468315"
  },
  {
    "Name": "全民連鎖動物醫院-頭份分院",
    "Address": "苗栗縣竹南鎮博愛街136號",
    "Latitude": 24.6869725,
    "Longitude": 120.8757394,
    "Tel": "037-467-524"
  },
  {
    "Name": "健生動物醫院",
    "Address": "苗栗縣竹南鎮環市路二段141號",
    "Latitude": 24.6855416,
    "Longitude": 120.8687575,
    "Tel": "037-460-943"
  },
  {
    "Name": "聖心動物醫院",
    "Address": "苗栗縣竹南鎮環市路一段205號",
    "Latitude": 24.6818731,
    "Longitude": 120.874166,
    "Tel": "037-461-332"
  },
  {
    "Name": "波比寵物專科診所",
    "Address": "苗栗縣竹南鎮光復路436號",
    "Latitude": 24.6940687,
    "Longitude": 120.8796573,
    "Tel": "037-550-450"
  },
  {
    "Name": "彭獸醫藥行",
    "Address": "苗栗縣頭份鎮自強路79號",
    "Latitude": 24.6889341,
    "Longitude": 120.9105978,
    "Tel": "037-668948"
  },
  {
    "Name": "安生動物醫院",
    "Address": "苗栗縣頭份鎮中華路975號",
    "Latitude": 24.6854231,
    "Longitude": 120.906248,
    "Tel": "037-669821"
  },
  {
    "Name": "永昌家畜醫院",
    "Address": "苗栗縣頭份鎮自強路291號",
    "Latitude": 24.6853362,
    "Longitude": 120.9023536,
    "Tel": "037-668650"
  },
  {
    "Name": "心雅動物醫院",
    "Address": "苗栗縣頭份鎮中華路955-7號",
    "Latitude": 24.6849049,
    "Longitude": 120.9057869,
    "Tel": "037-682106"
  },
  {
    "Name": "安達動物醫院",
    "Address": "苗栗縣頭份鎮南田街115號",
    "Latitude": 24.6822041,
    "Longitude": 120.883672,
    "Tel": "037-614-090"
  },
  {
    "Name": "全民連鎖動物醫院-竹南分院",
    "Address": "苗栗縣頭份鎮信東路105號",
    "Latitude": 24.688214,
    "Longitude": 120.909901,
    "Tel": "(037)596-645"
  },
  {
    "Name": "頭份永昌動物醫院",
    "Address": "苗栗縣頭份鎮自強路291號",
    "Latitude": 24.6853362,
    "Longitude": 120.9023536,
    "Tel": "037-668-650"
  },
  {
    "Name": "唯仁動物醫院",
    "Address": "苗栗縣頭份鎮中華路1307號",
    "Latitude": 24.6922411,
    "Longitude": 120.913956,
    "Tel": "037-681-770"
  },
  {
    "Name": "通霄獸醫院",
    "Address": "苗栗縣通霄鎮福德路5號",
    "Latitude": 24.487498,
    "Longitude": 120.6811378,
    "Tel": "037-754-815"
  },
  {
    "Name": "中正動物醫院",
    "Address": "苗栗縣苑裡鎮中正里中正40-15號",
    "Latitude": 24.4350713,
    "Longitude": 120.6611435,
    "Tel": "037-866951"
  },
  {
    "Name": "仁心動物醫院",
    "Address": "苗栗縣苑裡鎮中山路156-1號",
    "Latitude": 24.4432403,
    "Longitude": 120.6517265,
    "Tel": "037-861-318"
  },
  {
    "Name": "榮源家畜醫院",
    "Address": "苗栗縣苗栗市中山路593號",
    "Latitude": 24.557607,
    "Longitude": 120.819834,
    "Tel": "037-321185"
  },
  {
    "Name": "家樂福動物醫院",
    "Address": "苗栗縣苗栗市光復路173-1號",
    "Latitude": 24.5560316,
    "Longitude": 120.8160442,
    "Tel": "037-368518"
  },
  {
    "Name": "博仁動物醫院",
    "Address": "苗栗縣苗栗市至公路229號",
    "Latitude": 24.5601527,
    "Longitude": 120.8154015,
    "Tel": "037-330173"
  },
  {
    "Name": "旺旺動物醫院",
    "Address": "苗栗縣苗栗市福興街75巷6號",
    "Latitude": 24.5721171,
    "Longitude": 120.826004,
    "Tel": "037-272532"
  },
  {
    "Name": "東方家畜醫院",
    "Address": "苗栗縣苗栗市社寮街197號",
    "Latitude": 24.5662169,
    "Longitude": 120.8247346,
    "Tel": "037-335739"
  },
  {
    "Name": "全生動物醫院",
    "Address": "苗栗縣苗栗市玉清路63號",
    "Latitude": 24.5633811,
    "Longitude": 120.828579,
    "Tel": "037-350685"
  },
  {
    "Name": "和平動物醫院",
    "Address": "苗栗縣苗栗市水源里20鄰25-9號",
    "Latitude": 24.5623125,
    "Longitude": 120.8100116,
    "Tel": "037-322771"
  },
  {
    "Name": "健成家畜醫院",
    "Address": "苗栗縣苗栗市和平路67號",
    "Latitude": 24.5638368,
    "Longitude": 120.817799,
    "Tel": "037-353-182"
  },
  {
    "Name": "永昌家畜醫院",
    "Address": "苗栗縣苗栗市至公路29號",
    "Latitude": 24.557233,
    "Longitude": 120.819624,
    "Tel": "037-321-531"
  },
  {
    "Name": "龍動物醫院",
    "Address": "苗栗縣西湖鄉五湖村五湖街166號",
    "Latitude": 24.5240446,
    "Longitude": 120.7751157,
    "Tel": "037-911193"
  }
]