[
  {
    "Name": "佑犬動物醫院",
    "Address": "南投縣南投市虎山路58號",
    "Latitude": 23.9592411,
    "Longitude": 120.6851628,
    "Tel": "049-351442"
  },
  {
    "Name": "南投縣家畜疾病防治所",
    "Address": "南投縣南投市民族路499號",
    "Latitude": 23.9065123,
    "Longitude": 120.6801479,
    "Tel": "049-222542"
  },
  {
    "Name": "佑犬動物醫院",
    "Address": "南投縣南投市虎山路58號",
    "Latitude": 23.9592411,
    "Longitude": 120.6851628,
    "Tel": "04-92351442"
  },
  {
    "Name": "大群動物醫院",
    "Address": "南投縣南投市中興路551號",
    "Latitude": 23.9063955,
    "Longitude": 120.690657,
    "Tel": "04-92223730"
  },
  {
    "Name": "東南動物醫院",
    "Address": "南投縣南投市復興路98-1號",
    "Latitude": 23.9043484,
    "Longitude": 120.6879754,
    "Tel": "04-92236287"
  },
  {
    "Name": "大心動物醫院",
    "Address": "南投縣草屯鄉太平路二段188號",
    "Latitude": 23.9736305,
    "Longitude": 120.6835855,
    "Tel": "049-2353838"
  },
  {
    "Name": "美奇動物醫院",
    "Address": "南投縣草屯鄉炎峰街104號",
    "Latitude": 23.9812995,
    "Longitude": 120.6857752,
    "Tel": "049-2381925"
  },
  {
    "Name": "愛心動物醫院",
    "Address": "南投縣草屯鄉北勢里玉屏路35之30號",
    "Latitude": 23.997123,
    "Longitude": 120.720112,
    "Tel": "049-339559"
  },
  {
    "Name": "德穎動物醫院",
    "Address": "南投縣草屯鄉草溪路969巷6號",
    "Latitude": 23.976423,
    "Longitude": 120.68074,
    "Tel": "049-319191"
  },
  {
    "Name": "新豐獸醫院",
    "Address": "南投縣草屯鄉成功路一段359號",
    "Latitude": 23.9824304,
    "Longitude": 120.6812146,
    "Tel": "04-92320643"
  },
  {
    "Name": "長興動物醫院",
    "Address": "南投縣草屯鄉太平路二段137號",
    "Latitude": 23.9723116,
    "Longitude": 120.6830784,
    "Tel": "04-92338886"
  },
  {
    "Name": "興德動物醫院",
    "Address": "南投縣草屯鄉中正路867號",
    "Latitude": 23.984005,
    "Longitude": 120.685836,
    "Tel": "04-92327918"
  },
  {
    "Name": "中興動物醫院",
    "Address": "南投縣草屯鄉中正路854號",
    "Latitude": 23.9839739,
    "Longitude": 120.686141,
    "Tel": "04-92333969"
  },
  {
    "Name": "安成動物醫院",
    "Address": "南投縣埔里鎮忠孝路160號",
    "Latitude": 23.9629378,
    "Longitude": 120.9706994,
    "Tel": "049-910906"
  },
  {
    "Name": "吳獸醫家畜診所",
    "Address": "南投縣埔里鎮東華路91-1號",
    "Latitude": 23.9632776,
    "Longitude": 120.9688719,
    "Tel": "04-92982946"
  },
  {
    "Name": "慧光動物醫院",
    "Address": "南投縣埔里鎮西安路一段338號",
    "Latitude": 23.9741599,
    "Longitude": 120.9696697,
    "Tel": "04-92901187"
  },
  {
    "Name": "嘉陽動物醫院",
    "Address": "南投縣埔里鎮北澤街62號",
    "Latitude": 23.966195,
    "Longitude": 120.970886,
    "Tel": "04-92997320"
  },
  {
    "Name": "埔里動物醫院",
    "Address": "南投縣埔里鎮中山路三段445號",
    "Latitude": 23.9694842,
    "Longitude": 120.9542328,
    "Tel": "04-92916650"
  },
  {
    "Name": "謝宗達家畜診所",
    "Address": "南投縣名間鄉員集路130號",
    "Latitude": 23.8356797,
    "Longitude": 120.7025052,
    "Tel": "04-92734854"
  },
  {
    "Name": "吉利家畜診所",
    "Address": "南投縣集集鎮永昌里民生東路1巷3號",
    "Latitude": 23.829463,
    "Longitude": 120.8014341,
    "Tel": "049-2764060"
  },
  {
    "Name": "強生犬畜寵物診所",
    "Address": "南投縣竹山鄉集山路三段1422號",
    "Latitude": 23.7578464,
    "Longitude": 120.6662305,
    "Tel": "049-2645122"
  },
  {
    "Name": "護安獸醫院",
    "Address": "南投縣竹山鄉集山路三段849號",
    "Latitude": 23.7574351,
    "Longitude": 120.68413,
    "Tel": "049-2646633"
  },
  {
    "Name": "德陽動物醫院",
    "Address": "南投縣竹山鄉集山路三段331號",
    "Latitude": 23.7625655,
    "Longitude": 120.6986795,
    "Tel": "049-2631322"
  },
  {
    "Name": "護安獸醫院",
    "Address": "南投縣竹山鄉集山路三段849號",
    "Latitude": 23.7574351,
    "Longitude": 120.68413,
    "Tel": "04-92646633"
  }
]