[
 {
   "Name":"馬達加斯加",
   "Address":"新北市板橋區文化路2段500號",
   "Latitude":25.0333522,
   "Longitude":121.4756558,
   "Tel":"02-8259-5001"
 },
 {
   "Name":"後埔獸醫院",
   "Address":"新北市板橋區館前西路156-1號1樓",
   "Latitude":25.008621,
   "Longitude":121.4550714,
   "Tel":"02-29678864"
 },
 {
   "Name":"迪威德賽鴿專科醫院",
   "Address":"新北市板橋區海山路11號1樓",
   "Latitude":25.0093785,
   "Longitude":121.4691965,
   "Tel":"02-89512330"
 },
 {
   "Name":"尚德動物醫院",
   "Address":"新北市板橋區南雅西路2段9號",
   "Latitude":25.0091907,
   "Longitude":121.4528886,
   "Tel":"02-29650238"
 },
 {
   "Name":"躍生動物醫院",
   "Address":"新北市板橋區民權路258-2號1樓",
   "Latitude":25.015115,
   "Longitude":121.458,
   "Tel":"02-89681075"
 },
 {
   "Name":"五洲獸醫院",
   "Address":"新北市板橋區民生路2段218號",
   "Latitude":25.0217465,
   "Longitude":121.469288,
   "Tel":"02-22546660"
 },
 {
   "Name":"板橋動物醫院",
   "Address":"新北市板橋區文化路2段522號1樓",
   "Latitude":25.0335472,
   "Longitude":121.4758874,
   "Tel":"02-82581176"
 },
 {
   "Name":"雙十動物醫院",
   "Address":"新北市板橋區雙十路二段四號1樓、2樓",
   "Latitude":25.0252858,
   "Longitude":121.4773899,
   "Tel":"(02)2250-2000"
 },
 {
   "Name":"台大文仁動物醫院",
   "Address":"新北市板橋區篤行路三段64號1號",
   "Latitude":24.9863923,
   "Longitude":121.4278409,
   "Tel":"(02)2683-3122"
 },
 {
   "Name":"中心動物醫院",
   "Address":"新北市板橋區新海路30號",
   "Latitude":25.0213245,
   "Longitude":121.4623011,
   "Tel":"(02)2258-3540"
 },
 {
   "Name":"台灣動物醫院",
   "Address":"新北市板橋區陽明街54號1樓",
   "Latitude":25.022393,
   "Longitude":121.465192,
   "Tel":"(02)2258-8987"
 },
 {
   "Name":"亞麥動物醫院",
   "Address":"新北市板橋區國光路77號1樓",
   "Latitude":25.0183849,
   "Longitude":121.4596353,
   "Tel":"(02)2272-4481"
 },
 {
   "Name":"聖博獸醫院",
   "Address":"新北市板橋區重慶路299號1樓",
   "Latitude":24.9990719,
   "Longitude":121.4637092,
   "Tel":"(02)2957-0958"
 },
 {
   "Name":"隆安動物醫院",
   "Address":"新北市板橋區忠孝路79號",
   "Latitude":25.0022243,
   "Longitude":121.4619819,
   "Tel":"(02)8953-3055"
 },
 {
   "Name":"仁愛家畜醫院",
   "Address":"新北市板橋區民族路179號",
   "Latitude":25.0076202,
   "Longitude":121.4687133,
   "Tel":"(02)2959-4455"
 },
 {
   "Name":"牧村動物醫院",
   "Address":"新北市板橋區民生路二段50號",
   "Latitude":25.0176299,
   "Longitude":121.4722037,
   "Tel":"(02)8951-1172"
 },
 {
   "Name":"嘉棋動物醫院",
   "Address":"新北市板橋區四川路二段115號",
   "Latitude":24.994271,
   "Longitude":121.4515464,
   "Tel":"(02)8966-2551"
 },
 {
   "Name":"佳安動物醫院",
   "Address":"新北市板橋區四川路一段234號",
   "Latitude":25.0018388,
   "Longitude":121.4592402,
   "Tel":"(02)2951-1301"
 },
 {
   "Name":"富安家畜醫院",
   "Address":"新北市板橋區文化路二段335號",
   "Latitude":25.030569,
   "Longitude":121.472325,
   "Tel":"(02)2251-3076"
 },
 {
   "Name":"紐約紐約動物醫院",
   "Address":"新北市板橋區文化路二段139號",
   "Latitude":25.026859,
   "Longitude":121.469953,
   "Tel":"02-22501636"
 },
 {
   "Name":"六福動物醫院",
   "Address":"新北市板橋區文化路一段182號",
   "Latitude":25.0194387,
   "Longitude":121.4659202,
   "Tel":"(02)2253-0518"
 },
 {
   "Name":"祐康獸醫院",
   "Address":"新北市板橋區文化路一段140號",
   "Latitude":25.018907,
   "Longitude":121.465351,
   "Tel":"(02)2258-1755"
 },
 {
   "Name":"台大動物醫院",
   "Address":"新北市板橋區文化路2段11號",
   "Latitude":25.024375,
   "Longitude":121.468424,
   "Tel":"(02)2258-0809"
 },
 {
   "Name":"板新動物醫院",
   "Address":"新北市板橋區中正路332-11號",
   "Latitude":25.023087,
   "Longitude":121.454517,
   "Tel":"(02)2969-5866"
 },
 {
   "Name":"旺旺動物醫院",
   "Address":"新北市板橋區中山路二段181號",
   "Latitude":25.016964,
   "Longitude":121.476194,
   "Tel":"(02)2952-4991"
 },
 {
   "Name":"台安動物醫院",
   "Address":"新北市板橋區三民路二段204-2號",
   "Latitude":25.0122337,
   "Longitude":121.4786671,
   "Tel":"(02)2962-2560"
 },
 {
   "Name":"耀生動物醫院",
   "Address":"新北市汐止區忠三街37巷35號",
   "Latitude":25.0787843,
   "Longitude":121.6274907,
   "Tel":"02-86464005"
 },
 {
   "Name":"國泰動物醫院",
   "Address":"新北市汐止區大同路2段284號",
   "Latitude":25.0662507,
   "Longitude":121.6548152,
   "Tel":"02-26480866"
 },
 {
   "Name":"嘉德動物醫院",
   "Address":"新北市汐止區福德一路206巷1號",
   "Latitude":25.0658383,
   "Longitude":121.6344113,
   "Tel":"(02)2693-4809"
 },
 {
   "Name":"眾新動物醫院",
   "Address":"新北市汐止區新興路8號1樓",
   "Latitude":25.0648107,
   "Longitude":121.6561824,
   "Tel":"(02)2643-1960"
 },
 {
   "Name":"貝斯特動物醫院",
   "Address":"新北市汐止區新台五路二段28號",
   "Latitude":25.0662534,
   "Longitude":121.6628793,
   "Tel":"(02)8692-3655"
 },
 {
   "Name":"尚虹動物醫院",
   "Address":"新北市汐止區康寧街455號",
   "Latitude":25.0685469,
   "Longitude":121.631361,
   "Tel":"(02)8693-4743"
 },
 {
   "Name":"智遇動物醫院",
   "Address":"新北市汐止區明峰街39號",
   "Latitude":25.071192,
   "Longitude":121.63367,
   "Tel":"(02)2695-5119"
 },
 {
   "Name":"宏昕動物醫院",
   "Address":"新北市汐止區明峰街129-1號",
   "Latitude":25.0709009,
   "Longitude":121.6303651,
   "Tel":"(02)2692-3288"
 },
 {
   "Name":"寵愛一生動物醫院",
   "Address":"新北市汐止區忠孝東路266號",
   "Latitude":25.0678328,
   "Longitude":121.6634388,
   "Tel":"(02)2641-5589"
 },
 {
   "Name":"范獸醫院",
   "Address":"新北市汐止區大同路二段518號",
   "Latitude":25.0683488,
   "Longitude":121.6612235,
   "Tel":"(02)2641-3276"
 },
 {
   "Name":"新北動物醫院",
   "Address":"新北市汐止區大同路2段456號",
   "Latitude":25.067344,
   "Longitude":121.66009,
   "Tel":"(02)2648-7669"
 },
 {
   "Name":"惠明獸醫院",
   "Address":"新北市汐止區大同路2段428號",
   "Latitude":25.067004,
   "Longitude":121.658974,
   "Tel":"(02)2643-1968"
 },
 {
   "Name":"深坑動物醫院",
   "Address":"新北市深坑區北深路2段82號",
   "Latitude":25.0037503,
   "Longitude":121.6180895,
   "Tel":"(02)2664-3865"
 },
 {
   "Name":"愛馨動物醫院",
   "Address":"新北市瑞芳區明燈路3段3號1樓",
   "Latitude":25.107426,
   "Longitude":121.8089614,
   "Tel":"(02)2497-8928"
 },
 {
   "Name":"愛友家畜醫院",
   "Address":"新北市新店區中正路427-2號",
   "Latitude":24.9780648,
   "Longitude":121.5340164,
   "Tel":"02-22013218"
 },
 {
   "Name":"新店獸醫院",
   "Address":"新北市新店區環河路15號",
   "Latitude":24.961249,
   "Longitude":121.537772,
   "Tel":"02-29111193"
 },
 {
   "Name":"剛果非犬貓動物醫院",
   "Address":"新北市新店區中興路3段259號",
   "Latitude":24.9845819,
   "Longitude":121.542107,
   "Tel":"02-86655702"
 },
 {
   "Name":"弘安獸醫院",
   "Address":"新北市新店區北新路3段146號",
   "Latitude":24.9822905,
   "Longitude":121.5416693,
   "Tel":"02-29162020"
 },
 {
   "Name":"香草蒝芳療動物醫院",
   "Address":"新北市新店區北新路3段105巷11號1樓",
   "Latitude":24.9818949,
   "Longitude":121.540732,
   "Tel":"02-29302569"
 },
 {
   "Name":"惠安犬貓醫院",
   "Address":"新北市新店區北新路2段94號",
   "Latitude":24.9732143,
   "Longitude":121.5431141,
   "Tel":"02-29142518"
 },
 {
   "Name":"愛達司動物醫院",
   "Address":"新北市新店區中興路一段261號",
   "Latitude":24.9674619,
   "Longitude":121.54449,
   "Tel":"02-89147888"
 },
 {
   "Name":"康和動物醫院",
   "Address":"新北市新店區中正路429號1樓",
   "Latitude":24.9781407,
   "Longitude":121.5340409,
   "Tel":"02-29181850"
 },
 {
   "Name":"高登動物醫院",
   "Address":"新北市新店區三民路106號",
   "Latitude":24.9739134,
   "Longitude":121.5342067,
   "Tel":"02-29173512"
 },
 {
   "Name":"康爾維動物醫院",
   "Address":"新北市新店區車子路8-2號",
   "Latitude":24.9527231,
   "Longitude":121.5045173,
   "Tel":"(02)8666-9595"
 },
 {
   "Name":"安新動物醫院",
   "Address":"新北市新店區安康路二段4號",
   "Latitude":24.9638185,
   "Longitude":121.5164229,
   "Tel":"(02)8666-5598"
 },
 {
   "Name":"安康動物醫院",
   "Address":"新北市新店區安康路二段171號",
   "Latitude":24.9592355,
   "Longitude":121.5098793,
   "Tel":"(02)2211-9881"
 },
 {
   "Name":"來安動物醫院",
   "Address":"新北市新店區安康路二段115-1號1樓",
   "Latitude":24.9616259,
   "Longitude":121.5126276,
   "Tel":"02-29201556"
 },
 {
   "Name":"耕莘動物醫院",
   "Address":"新北市新店區光明街157號1樓",
   "Latitude":24.9624299,
   "Longitude":121.539547,
   "Tel":"(02)2910-0995"
 },
 {
   "Name":"誠恩動物醫院",
   "Address":"新北市新店區民族路32號",
   "Latitude":24.9788848,
   "Longitude":121.5406711,
   "Tel":"(02)2910-1354"
 },
 {
   "Name":"新店太僕動物醫院",
   "Address":"新北市新店區北新路一段345號1樓",
   "Latitude":24.9691198,
   "Longitude":121.5417283,
   "Tel":"(02)8665-8580"
 },
 {
   "Name":"永康動物醫院",
   "Address":"新北市新店區北新路一段171號",
   "Latitude":24.964244,
   "Longitude":121.53996,
   "Tel":"(02)2912-7025"
 },
 {
   "Name":"喬伊寵物醫院",
   "Address":"新北市新店區中興里檳榔路9號",
   "Latitude":24.9648799,
   "Longitude":121.541132,
   "Tel":"02-29116955"
 },
 {
   "Name":"強生動物醫院",
   "Address":"新北市新店區中正路392號",
   "Latitude":24.9774309,
   "Longitude":121.534916,
   "Tel":"(02)2219-2055"
 },
 {
   "Name":"中友犬貓專科醫院",
   "Address":"新北市新店區中正路19號",
   "Latitude":24.9694107,
   "Longitude":121.5453219,
   "Tel":"(02)2915-3597"
 },
 {
   "Name":"全國動物醫院-永和分院",
   "Address":"新北市永和區永貞路175號1樓",
   "Latitude":25.0037908,
   "Longitude":121.5152398,
   "Tel":"02-8923-1148"
 },
 {
   "Name":"吉利家畜醫院",
   "Address":"新北市永和區永貞路82號1樓",
   "Latitude":25.0052619,
   "Longitude":121.520135,
   "Tel":"02-29280986"
 },
 {
   "Name":"金華動物醫院",
   "Address":"新北市永和區永和路2段342號",
   "Latitude":25.017192,
   "Longitude":121.516278,
   "Tel":"02-29212141"
 },
 {
   "Name":"延吉動物醫院",
   "Address":"新北市永和區永利路106號",
   "Latitude":25.0033842,
   "Longitude":121.5211736,
   "Tel":"02-29201883"
 },
 {
   "Name":"同安動物醫院",
   "Address":"新北市永和區中山路1段233號1樓",
   "Latitude":25.007566,
   "Longitude":121.507983,
   "Tel":"02-32334027"
 },
 {
   "Name":"同伴動物醫院",
   "Address":"新北市永和區福和路316-1號",
   "Latitude":25.0073434,
   "Longitude":121.5158562,
   "Tel":"(02)2929-5098"
 },
 {
   "Name":"慶生動物醫院",
   "Address":"新北市永和區得和路261號",
   "Latitude":25.0000718,
   "Longitude":121.5213459,
   "Tel":"(02)2923-1301"
 },
 {
   "Name":"錫安動物醫院",
   "Address":"新北市永和區竹林路19號1樓",
   "Latitude":25.0149867,
   "Longitude":121.5169901,
   "Tel":"(02)8925-5009"
 },
 {
   "Name":"竹林動物醫院",
   "Address":"新北市永和區竹林路141號",
   "Latitude":25.0106383,
   "Longitude":121.5204198,
   "Tel":"(02)8926-7681"
 },
 {
   "Name":"泰安動物醫院",
   "Address":"新北市永和區永貞路83號1樓",
   "Latitude":25.0042869,
   "Longitude":121.5185302,
   "Tel":"(02)8660-8932"
 },
 {
   "Name":"牛津動物醫院",
   "Address":"新北市永和區永貞路175號",
   "Latitude":25.0037908,
   "Longitude":121.5152398,
   "Tel":"(02)8923-1148"
 },
 {
   "Name":"永和獸醫院",
   "Address":"新北市永和區永和路二段336號",
   "Latitude":25.0166438,
   "Longitude":121.5164935,
   "Tel":"(02)2928-4079"
 },
 {
   "Name":"崇恩寵物醫院",
   "Address":"新北市永和區永利路95號",
   "Latitude":25.0032127,
   "Longitude":121.5217957,
   "Tel":"(02)2231-2531"
 },
 {
   "Name":"鯨生動物醫院",
   "Address":"新北市永和區民生路21號",
   "Latitude":24.9974456,
   "Longitude":121.5225923,
   "Tel":"(02)2947-5676"
 },
 {
   "Name":"樂活動物醫院",
   "Address":"新北市永和區中興街107號1樓",
   "Latitude":25.0121806,
   "Longitude":121.5181008,
   "Tel":"(02)2922-5805"
 },
 {
   "Name":"瑪雅動物醫院",
   "Address":"新北市永和區中和路339號",
   "Latitude":24.9997785,
   "Longitude":121.5076406,
   "Tel":"(02)8921-1948"
 },
 {
   "Name":"成蹊動物醫院",
   "Address":"新北市永和區中正路474號1樓",
   "Latitude":25.0033406,
   "Longitude":121.5175633,
   "Tel":"(02)8660-8594"
 },
 {
   "Name":"晶華動物醫院",
   "Address":"新北市永和區中正路197號1樓",
   "Latitude":24.9995279,
   "Longitude":121.517043,
   "Tel":"(02)2943-0349"
 },
 {
   "Name":"雙和動物醫院",
   "Address":"新北市永和區中正路196號",
   "Latitude":24.9971325,
   "Longitude":121.5156101,
   "Tel":"(02)2946-6633"
 },
 {
   "Name":"中盟動物醫院",
   "Address":"新北市永和區中正路113號",
   "Latitude":24.9976268,
   "Longitude":121.515584,
   "Tel":"(02)2941-0466"
 },
 {
   "Name":"中山動物醫院",
   "Address":"新北市永和區中山路一段29號",
   "Latitude":25.0104232,
   "Longitude":121.5134096,
   "Tel":"(02)2924-1658"
 },
 {
   "Name":"皮皮動物醫院",
   "Address":"新北市永和區中山路一段259號",
   "Latitude":25.0074776,
   "Longitude":121.5075155,
   "Tel":"(02)2920-1952"
 },
 {
   "Name":"尚格動物醫院",
   "Address":"新北市中和區安平路200-1號",
   "Latitude":24.999385,
   "Longitude":121.513465,
   "Tel":"02-2948-9666"
 },
 {
   "Name":"左岸動物醫院",
   "Address":"新北市中和區福祥路129號",
   "Latitude":25.007153,
   "Longitude":121.4984165,
   "Tel":"02-82453639"
 },
 {
   "Name":"慈愛動物醫院-中和分院",
   "Address":"新北市中和區景平路321號",
   "Latitude":24.9931066,
   "Longitude":121.5060514,
   "Tel":"02-29410386"
 },
 {
   "Name":"寵愛家畜醫院",
   "Address":"新北市中和區連城路409號",
   "Latitude":24.9960786,
   "Longitude":121.48595,
   "Tel":"02-22214527"
 },
 {
   "Name":"興南動物醫院",
   "Address":"新北市中和區南山路1段174號1樓及B1",
   "Latitude":24.9868158,
   "Longitude":121.5082795,
   "Tel":"02-29455797"
 },
 {
   "Name":"亞東動物醫院",
   "Address":"新北市中和區中正路639號1樓",
   "Latitude":24.995565,
   "Longitude":121.485059,
   "Tel":"02-22218515"
 },
 {
   "Name":"來來動物醫院",
   "Address":"新北市中和區德光路29號",
   "Latitude":25.0042059,
   "Longitude":121.470717,
   "Tel":"02-89539739"
 },
 {
   "Name":"景新動物醫院",
   "Address":"新北市中和區景新街473號",
   "Latitude":24.987858,
   "Longitude":121.51354,
   "Tel":"(02)2947-5505"
 },
 {
   "Name":"名星動物醫院",
   "Address":"新北市中和區景平路591號",
   "Latitude":25.0004268,
   "Longitude":121.497437,
   "Tel":"(02)2245-1691"
 },
 {
   "Name":"長榮動物醫院",
   "Address":"新北市中和區景平路380號1樓",
   "Latitude":24.9930265,
   "Longitude":121.5106258,
   "Tel":"(02)2941-4760"
 },
 {
   "Name":"協和獸醫院",
   "Address":"新北市中和區景平路167號",
   "Latitude":24.9923971,
   "Longitude":121.5122865,
   "Tel":"(02)2940-1781"
 },
 {
   "Name":"伊凡動物醫院",
   "Address":"新北市中和區復興路300號1樓",
   "Latitude":24.9904278,
   "Longitude":121.5014856,
   "Tel":"(02)2240-3923"
 },
 {
   "Name":"王朋動物醫院",
   "Address":"新北市中和區連城路72號",
   "Latitude":25.0006936,
   "Longitude":121.4970917,
   "Tel":"(02)2248-0624"
 },
 {
   "Name":"承大動物醫院",
   "Address":"新北市中和區連城路563號之1",
   "Latitude":24.9945869,
   "Longitude":121.479603,
   "Tel":"(02)2223-9440"
 },
 {
   "Name":"近易動物醫院",
   "Address":"新北市中和區連城路428巷6弄9號",
   "Latitude":24.9956709,
   "Longitude":121.48056,
   "Tel":"(02)8228-7360"
 },
 {
   "Name":"五信動物醫院",
   "Address":"新北市中和區連城路358號",
   "Latitude":24.9956,
   "Longitude":121.48204,
   "Tel":"(02)2221-8798"
 },
 {
   "Name":"和生動物醫院",
   "Address":"新北市中和區連城路273號",
   "Latitude":24.9962586,
   "Longitude":121.4908664,
   "Tel":"(02)2243-2166"
 },
 {
   "Name":"仁心動物醫院",
   "Address":"新北市中和區南華路60號",
   "Latitude":24.9972179,
   "Longitude":121.5046323,
   "Tel":"(02)2240-8865"
 },
 {
   "Name":"明佳動物醫院",
   "Address":"新北市中和區宜安路125號",
   "Latitude":24.9981441,
   "Longitude":121.5098021,
   "Tel":"(02)2943-3709"
 },
 {
   "Name":"正吉動物醫院",
   "Address":"新北市中和區安樂路23號1樓",
   "Latitude":24.992307,
   "Longitude":121.511571,
   "Tel":"(02)2945-5757"
 },
 {
   "Name":"康寶動物醫院",
   "Address":"新北市中和區中興街130號",
   "Latitude":24.9923971,
   "Longitude":121.4997728,
   "Tel":"(02)2245-5686"
 },
 {
   "Name":"福林動物醫院",
   "Address":"新北市中和區中安街230號",
   "Latitude":24.9987019,
   "Longitude":121.511883,
   "Tel":"(02)2921-8867"
 },
 {
   "Name":"中日動物醫院",
   "Address":"新北市中和區中山路三段2號",
   "Latitude":25.0062213,
   "Longitude":121.4797926,
   "Tel":"(02)2226-3639"
 },
 {
   "Name":"全國動物醫院－環球分院",
   "Address":"新北市中和區中山路三段122號1樓",
   "Latitude":25.0065836,
   "Longitude":121.4748252,
   "Tel":"(02)7731-2991"
 },
 {
   "Name":"員山動物醫院",
   "Address":"新北市中和區中山路二段577號",
   "Latitude":25.005785,
   "Longitude":121.480125,
   "Tel":"(02)2223-4519"
 },
 {
   "Name":"富利勝動物醫院",
   "Address":"新北市土城區中華路1段94號",
   "Latitude":24.987483,
   "Longitude":121.4445412,
   "Tel":"(02)2264-6218"
 },
 {
   "Name":"禾米動物醫院",
   "Address":"新北市土城區金城路三段173號",
   "Latitude":24.9876771,
   "Longitude":121.4676828,
   "Tel":"02-22611212"
 },
 {
   "Name":"福德獸醫院",
   "Address":"新北市土城區明德路2段207號",
   "Latitude":24.9835766,
   "Longitude":121.4464978,
   "Tel":"02-22739256"
 },
 {
   "Name":"弘恩動物醫院",
   "Address":"新北市土城區延平街80號1樓",
   "Latitude":24.9933475,
   "Longitude":121.467749,
   "Tel":"02-22708397"
 },
 {
   "Name":"王動物醫院",
   "Address":"新北市土城區中央路3段141-7號1樓",
   "Latitude":24.965062,
   "Longitude":121.433208,
   "Tel":"02-22675407"
 },
 {
   "Name":"慈濟動物醫院",
   "Address":"新北市土城區學成路100號1樓及地下1樓",
   "Latitude":24.989213,
   "Longitude":121.450249,
   "Tel":"(02)2261-2260"
 },
 {
   "Name":"佳生動物醫院",
   "Address":"新北市土城區青雲路37-2號",
   "Latitude":24.9879557,
   "Longitude":121.4599901,
   "Tel":"(02)2270-0825"
 },
 {
   "Name":"山群動物醫院",
   "Address":"新北市土城區金城路3段135號",
   "Latitude":24.9881682,
   "Longitude":121.4681401,
   "Tel":"(02)2261-1148"
 },
 {
   "Name":"先鋒家畜診所",
   "Address":"新北市土城區立德路26號",
   "Latitude":24.9875719,
   "Longitude":121.462922,
   "Tel":"(02)2266-0150"
 },
 {
   "Name":"大慶獸醫院",
   "Address":"新北市土城區中央路一段六三號一樓",
   "Latitude":24.98997,
   "Longitude":121.448073,
   "Tel":"(02)2266-1075"
 },
 {
   "Name":"可麗兒動物醫院",
   "Address":"新北市土城區中央路二段20-1號",
   "Latitude":24.9804479,
   "Longitude":121.44269,
   "Tel":"(02)2260-6861"
 },
 {
   "Name":"安星動物醫院",
   "Address":"新北市土城區中央路2段8號1樓",
   "Latitude":24.9807839,
   "Longitude":121.442791,
   "Tel":"(02)8262-1687"
 },
 {
   "Name":"全家動物醫院",
   "Address":"新北市土城區中央路1段63號1樓及Ｂ1",
   "Latitude":24.968371,
   "Longitude":121.438034,
   "Tel":"(02)2266-1143"
 },
 {
   "Name":"林動物診所",
   "Address":"新北市三峽區秀川街4號",
   "Latitude":24.9346975,
   "Longitude":121.3724231,
   "Tel":"02-26712389"
 },
 {
   "Name":"北大奇緣動物醫院",
   "Address":"新北市三峽區大觀路7號1樓",
   "Latitude":24.9443287,
   "Longitude":121.3753888,
   "Tel":"02-86726119"
 },
 {
   "Name":"長明動物醫院",
   "Address":"新北市三峽區復興路83號",
   "Latitude":24.937435,
   "Longitude":121.372569,
   "Tel":"(02)2672-5400"
 },
 {
   "Name":"淯生動物醫院",
   "Address":"新北市三峽區復興路36-1號",
   "Latitude":24.9364659,
   "Longitude":121.374352,
   "Tel":"(02)2673-9191"
 },
 {
   "Name":"三峽奇緣動物醫院",
   "Address":"新北市三峽區中園街126之23號1樓",
   "Latitude":24.921242,
   "Longitude":121.366524,
   "Tel":"(02)2671-6119"
 },
 {
   "Name":"昇昇動物醫院",
   "Address":"新北市樹林區大雅路370號",
   "Latitude":24.9500468,
   "Longitude":121.379082,
   "Tel":"289702975"
 },
 {
   "Name":"王獸醫院",
   "Address":"新北市樹林區鎮前街97巷4號",
   "Latitude":24.9896537,
   "Longitude":121.4246609,
   "Tel":"02-26822089"
 },
 {
   "Name":"五星獸醫院",
   "Address":"新北市樹林區保安街1段96號",
   "Latitude":24.9945145,
   "Longitude":121.4245839,
   "Tel":"02-26833959"
 },
 {
   "Name":"藍世界動物醫院",
   "Address":"新北市樹林區中正路506號",
   "Latitude":25.0115995,
   "Longitude":121.4133876,
   "Tel":"02-26765787"
 },
 {
   "Name":"馥御動物醫院",
   "Address":"新北市樹林區中山路1段201號1樓",
   "Latitude":24.9875369,
   "Longitude":121.4212453,
   "Tel":"02-26811324"
 },
 {
   "Name":"慈輝動物醫院",
   "Address":"新北市樹林區鎮前街144號",
   "Latitude":24.9905824,
   "Longitude":121.4244881,
   "Tel":"(02)2681-1198"
 },
 {
   "Name":"愛欣動物醫院",
   "Address":"新北市樹林區樹德路5號1樓",
   "Latitude":24.9913744,
   "Longitude":121.4228452,
   "Tel":"(02)2687-5556"
 },
 {
   "Name":"永發獸醫院",
   "Address":"新北市樹林區樹新路35號",
   "Latitude":24.9945269,
   "Longitude":121.426861,
   "Tel":"(02)2683-5698"
 },
 {
   "Name":"家福動物醫院-樹林店",
   "Address":"新北市樹林區中華路6-3號",
   "Latitude":24.983649,
   "Longitude":121.4241809,
   "Tel":"(02)8686-6272"
 },
 {
   "Name":"展鵬獸醫院",
   "Address":"新北市樹林區中正路757號",
   "Latitude":25.0151097,
   "Longitude":121.4103317,
   "Tel":"(02)2688-0439"
 },
 {
   "Name":"山佳動物醫院",
   "Address":"新北市樹林區中山路三段77號",
   "Latitude":24.9749558,
   "Longitude":121.4003546,
   "Tel":"(02)2668-7542"
 },
 {
   "Name":"家德動物醫院",
   "Address":"新北市樹林區中山路一段196號",
   "Latitude":24.988376,
   "Longitude":121.421316,
   "Tel":"(02)2681-1860"
 },
 {
   "Name":"鶯歌獸醫院",
   "Address":"新北市鶯歌區文化路383號",
   "Latitude":24.9507169,
   "Longitude":121.352576,
   "Tel":"02-26782718"
 },
 {
   "Name":"鶯歌奇緣動物醫院",
   "Address":"新北市鶯歌區文化路262號1樓",
   "Latitude":24.9471839,
   "Longitude":121.352478,
   "Tel":"02-26792243"
 },
 {
   "Name":"旭安動物醫院",
   "Address":"新北市鶯歌區中山路125號1、2樓",
   "Latitude":24.9568989,
   "Longitude":121.349916,
   "Tel":"02-26795662"
 },
 {
   "Name":"長生動物醫院",
   "Address":"新北市鶯歌區行政路18號",
   "Latitude":24.9558902,
   "Longitude":121.3519747,
   "Tel":"(02)2678-7650"
 },
 {
   "Name":"德欣動物醫院",
   "Address":"新北市三重區信義街4號",
   "Latitude":25.0649927,
   "Longitude":121.4991959,
   "Tel":"229738657"
 },
 {
   "Name":"獴獴加動物醫院",
   "Address":"新北市三重區重新路四段20號",
   "Latitude":25.0574929,
   "Longitude":121.4885239,
   "Tel":"(02)2979-2232"
 },
 {
   "Name":"獴獴加動物醫院",
   "Address":"新北市三重區重新路4段20號1樓",
   "Latitude":25.0574929,
   "Longitude":121.4885239,
   "Tel":"(02)2979-2232"
 },
 {
   "Name":"提姆沃克動物醫院",
   "Address":"新北市三重區中正北路23號",
   "Latitude":25.0618936,
   "Longitude":121.4925348,
   "Tel":"02-89829291"
 },
 {
   "Name":"迦勤動物醫院",
   "Address":"新北市三重區中正南路114號",
   "Latitude":25.0583724,
   "Longitude":121.4944921,
   "Tel":"(02)2974-7741"
 },
 {
   "Name":"毛孩子動物醫院",
   "Address":"新北市三重區福德北路71號1樓",
   "Latitude":25.0656904,
   "Longitude":121.5021574,
   "Tel":"(02)2977-4887"
 },
 {
   "Name":"三重家畜醫院",
   "Address":"新北市三重區龍濱路169號",
   "Latitude":25.0699819,
   "Longitude":121.5026,
   "Tel":"02-29784391"
 },
 {
   "Name":"喬喬動物醫院",
   "Address":"新北市三重區福德北路71號1樓",
   "Latitude":25.0656904,
   "Longitude":121.5021574,
   "Tel":"02-29774887"
 },
 {
   "Name":"集賢愛生動物醫院",
   "Address":"新北市三重區集賢路40號及42號1樓",
   "Latitude":25.0880122,
   "Longitude":121.4936387,
   "Tel":"02-82875849"
 },
 {
   "Name":"瑞展獸醫院",
   "Address":"新北市三重區重陽路4段8號",
   "Latitude":25.0690159,
   "Longitude":121.490563,
   "Tel":"02-29877835"
 },
 {
   "Name":"民生動物醫院",
   "Address":"新北市三重區正義北路296號1樓",
   "Latitude":25.069573,
   "Longitude":121.4953463,
   "Tel":"02-29808154"
 },
 {
   "Name":"吉立動物醫院",
   "Address":"新北市三重區中正北路10號1樓",
   "Latitude":25.0630399,
   "Longitude":121.488846,
   "Tel":"02-29846306"
 },
 {
   "Name":"來旺旺動物醫院",
   "Address":"新北市三重區三和路4段266號1樓",
   "Latitude":25.0770749,
   "Longitude":121.4855983,
   "Tel":"02-22874710"
 },
 {
   "Name":"重新動物醫院",
   "Address":"新北市三重區重新路四段17號1樓",
   "Latitude":25.058226,
   "Longitude":121.48849,
   "Tel":"(02)2988-0365"
 },
 {
   "Name":"正新動物醫院",
   "Address":"新北市三重區重新路三段87號",
   "Latitude":25.0601671,
   "Longitude":121.4914248,
   "Tel":"(02)2988-1808"
 },
 {
   "Name":"青青動物醫院",
   "Address":"新北市三重區重新路三段37號",
   "Latitude":25.0614984,
   "Longitude":121.4939698,
   "Tel":"(02)2983-5687"
 },
 {
   "Name":"茂生獸醫院",
   "Address":"新北市三重區重新路一段62號",
   "Latitude":25.0635854,
   "Longitude":121.5022155,
   "Tel":"(02)2975-7666"
 },
 {
   "Name":"佳佳獸醫院",
   "Address":"新北市三重區重陽路一段20巷4號1樓",
   "Latitude":25.0575087,
   "Longitude":121.4867453,
   "Tel":"(02)2971-9531"
 },
 {
   "Name":"欣欣動物醫院-三重分院",
   "Address":"新北市三重區忠孝路二段9號",
   "Latitude":25.0715892,
   "Longitude":121.4868052,
   "Tel":"(02)2989-3621"
 },
 {
   "Name":"嘉興動物醫院",
   "Address":"新北市三重區忠孝路一段24號1樓",
   "Latitude":25.0716561,
   "Longitude":121.4918653,
   "Tel":"(02)2986-0239"
 },
 {
   "Name":"愛生動物醫院",
   "Address":"新北市三重區自強路五段48號",
   "Latitude":25.0812225,
   "Longitude":121.4933837,
   "Tel":"(02)2980-4982"
 },
 {
   "Name":"自強動物醫院",
   "Address":"新北市三重區自強路4段79號",
   "Latitude":25.0790578,
   "Longitude":121.4909913,
   "Tel":"(02)8985-8011"
 },
 {
   "Name":"宏昇家畜醫院",
   "Address":"新北市三重區正義北路307號",
   "Latitude":25.0712034,
   "Longitude":121.4943377,
   "Tel":"(02)2983-8983"
 },
 {
   "Name":"迦勒動物醫院",
   "Address":"新北市三重區中正南路114號",
   "Latitude":25.0583724,
   "Longitude":121.4944921,
   "Tel":"(02)2974-7741"
 },
 {
   "Name":"三和動物醫院",
   "Address":"新北市三重區三和路四段219號2F",
   "Latitude":25.07982,
   "Longitude":121.481753,
   "Tel":"(02)2280-3059"
 },
 {
   "Name":"重安動物醫院",
   "Address":"新北市三重區三和路三段20號",
   "Latitude":25.0702933,
   "Longitude":121.4966254,
   "Tel":"(02)2989-9503"
 },
 {
   "Name":"翰林獸醫院",
   "Address":"新北市三重區三民街130號",
   "Latitude":25.06495,
   "Longitude":121.482977,
   "Tel":"(02)2989-0089"
 },
 {
   "Name":"家麒獸醫院",
   "Address":"新北市三重區力行路二段145號",
   "Latitude":25.0772519,
   "Longitude":121.483533,
   "Tel":"(02)2280-7675"
 },
 {
   "Name":"守護動物醫院",
   "Address":"新北市新莊區中正路891-32號",
   "Latitude":25.0232514,
   "Longitude":121.4146748,
   "Tel":"229047859"
 },
 {
   "Name":"快樂動物醫院",
   "Address":"新北市新莊區福營路242號1樓及B1",
   "Latitude":25.029254,
   "Longitude":121.426438,
   "Tel":"02-29088772"
 },
 {
   "Name":"恆揚獸醫院",
   "Address":"新北市新莊區幸福路910號",
   "Latitude":25.0490356,
   "Longitude":121.4427113,
   "Tel":"02-29931610"
 },
 {
   "Name":"五昱獸醫院",
   "Address":"新北市新莊區中港路98號1樓",
   "Latitude":25.039464,
   "Longitude":121.455561,
   "Tel":"02-29961729"
 },
 {
   "Name":"中港動物醫院",
   "Address":"新北市新莊區中港路225號",
   "Latitude":25.0425595,
   "Longitude":121.4543985,
   "Tel":"02-29978049"
 },
 {
   "Name":"新莊太僕動物醫院",
   "Address":"新北市新莊區中正路853號",
   "Latitude":25.0278549,
   "Longitude":121.42017,
   "Tel":"02-29089070"
 },
 {
   "Name":"安安動物醫院",
   "Address":"新北市新莊區雙鳳路105號",
   "Latitude":25.027829,
   "Longitude":121.414355,
   "Tel":"(02)2901-3230"
 },
 {
   "Name":"快樂動物醫院",
   "Address":"新北市新莊區福營路242號",
   "Latitude":25.029254,
   "Longitude":121.426438,
   "Tel":"(02)2908-8772"
 },
 {
   "Name":"佳護動物醫院",
   "Address":"新北市新莊區福壽街212號",
   "Latitude":25.054138,
   "Longitude":121.458228,
   "Tel":"(02)8991-7815"
 },
 {
   "Name":"全祐獸醫院",
   "Address":"新北市新莊區壽山路4號",
   "Latitude":25.0287369,
   "Longitude":121.421404,
   "Tel":"(02)2901-6220"
 },
 {
   "Name":"新泰動物醫院",
   "Address":"新北市新莊區新泰路402號",
   "Latitude":25.043801,
   "Longitude":121.4440109,
   "Tel":"(02)2276-9427"
 },
 {
   "Name":"永吉家畜醫院",
   "Address":"新北市新莊區新泰路158號",
   "Latitude":25.037611,
   "Longitude":121.4476893,
   "Tel":"(02)2994-4940"
 },
 {
   "Name":"山盟動物醫院",
   "Address":"新北市新莊區復興路二段90號",
   "Latitude":25.0441598,
   "Longitude":121.4559251,
   "Tel":"(02)2277-5160"
 },
 {
   "Name":"建安動物醫院",
   "Address":"新北市新莊區建安街105號",
   "Latitude":25.0242662,
   "Longitude":121.4266116,
   "Tel":"(02)8201-6943"
 },
 {
   "Name":"祐全動物醫院",
   "Address":"新北市新莊區幸福路795號",
   "Latitude":25.0490048,
   "Longitude":121.4464047,
   "Tel":"(02)2997-5827"
 },
 {
   "Name":"杏福獸醫院",
   "Address":"新北市新莊區幸福路73號",
   "Latitude":25.0492881,
   "Longitude":121.4570785,
   "Tel":"(02)2277-9099"
 },
 {
   "Name":"杰輝家畜醫院",
   "Address":"新北市新莊區西盛街159號",
   "Latitude":25.0179248,
   "Longitude":121.4282286,
   "Tel":"(02)2201-2881"
 },
 {
   "Name":"榮星獸醫院",
   "Address":"新北市新莊區四維路四號一樓",
   "Latitude":25.025479,
   "Longitude":121.42379,
   "Tel":"(02)2205-8674"
 },
 {
   "Name":"丘原動物醫院",
   "Address":"新北市新莊區公園路160號",
   "Latitude":25.040067,
   "Longitude":121.453444,
   "Tel":"(02)2993-4631"
 },
 {
   "Name":"牧平動物醫院",
   "Address":"新北市新莊區公園路122號",
   "Latitude":25.0398697,
   "Longitude":121.4516111,
   "Tel":"(02)8992-7273"
 },
 {
   "Name":"宏明動物醫院",
   "Address":"新北市新莊區中港路398號",
   "Latitude":25.04973,
   "Longitude":121.452376,
   "Tel":"(02)2998-8577"
 },
 {
   "Name":"聖安動物醫院",
   "Address":"新北市新莊區中港路256號",
   "Latitude":25.043675,
   "Longitude":121.4535646,
   "Tel":"(02)2277-6711"
 },
 {
   "Name":"護生動物醫院",
   "Address":"新北市新莊區中和街93號",
   "Latitude":25.048076,
   "Longitude":121.447259,
   "Tel":"(02)2997-2812"
 },
 {
   "Name":"多多動物醫院",
   "Address":"新北市新莊區中正路783號",
   "Latitude":25.0285038,
   "Longitude":121.4216392,
   "Tel":"(02)2904-4415"
 },
 {
   "Name":"志誠動物醫院",
   "Address":"新北市新莊區中正路76-1號",
   "Latitude":25.037827,
   "Longitude":121.458308,
   "Tel":"(02)2998-1906"
 },
 {
   "Name":"銘德動物醫院",
   "Address":"新北市新莊區中正路603號",
   "Latitude":25.031873,
   "Longitude":121.432732,
   "Tel":"(02)2903-6368"
 },
 {
   "Name":"關心動物醫院",
   "Address":"新北市泰山區明志路一段317號",
   "Latitude":25.059024,
   "Longitude":121.4314819,
   "Tel":"222965821"
 },
 {
   "Name":"泰山動物醫院",
   "Address":"新北市泰山區明志路1段468號",
   "Latitude":25.055279,
   "Longitude":121.4305291,
   "Tel":"02-22961298"
 },
 {
   "Name":"泰林動物醫院",
   "Address":"新北市泰山區泰林路二段204號",
   "Latitude":25.0612152,
   "Longitude":121.433421,
   "Tel":"(02)2909-0833"
 },
 {
   "Name":"臺大健弘動物醫院",
   "Address":"新北市林口區民族路6號",
   "Latitude":25.0737527,
   "Longitude":121.3641518,
   "Tel":"226003851"
 },
 {
   "Name":"麗園動物醫院",
   "Address":"新北市林口區文化一路一段119號",
   "Latitude":25.0713202,
   "Longitude":121.3732714,
   "Tel":"02-26000989"
 },
 {
   "Name":"元亨犬貓專科診所",
   "Address":"新北市林口區南勢四街48號",
   "Latitude":25.0851167,
   "Longitude":121.3745027,
   "Tel":"02-26083748"
 },
 {
   "Name":"佳林動物醫院",
   "Address":"新北市林口區西林村竹林路60號",
   "Latitude":25.078244,
   "Longitude":121.3875706,
   "Tel":"02-26014638"
 },
 {
   "Name":"日祥動物醫院",
   "Address":"新北市林口區竹林路17號",
   "Latitude":25.0773188,
   "Longitude":121.3867995,
   "Tel":"02-26011780"
 },
 {
   "Name":"圓霖動物醫院－林口店",
   "Address":"新北市林口區忠孝路383號",
   "Latitude":25.0719076,
   "Longitude":121.368934,
   "Tel":"(02)2608-1606"
 },
 {
   "Name":"林動物醫院",
   "Address":"新北市林口區文化二路一段50號",
   "Latitude":25.0690159,
   "Longitude":121.3658278,
   "Tel":"(02)2608-2389"
 },
 {
   "Name":"麗園動物醫院",
   "Address":"新北市林口區文化一路一段119號1",
   "Latitude":25.0713202,
   "Longitude":121.3732714,
   "Tel":"(02)2600-0989"
 },
 {
   "Name":"太僕動物醫院",
   "Address":"新北市林口區文化一路一段102號1樓",
   "Latitude":25.07096,
   "Longitude":121.3727852,
   "Tel":"(02)2609-7201"
 },
 {
   "Name":"林口動物醫院",
   "Address":"新北市林口區中正路496號",
   "Latitude":25.0774352,
   "Longitude":121.382182,
   "Tel":"(02)2601-8364"
 },
 {
   "Name":"寶護動物醫院",
   "Address":"新北市林口區中山路281號1樓",
   "Latitude":25.0798883,
   "Longitude":121.3845952,
   "Tel":"02-86012219"
 },
 {
   "Name":"愛生連鎖動物醫院",
   "Address":"新北市蘆洲區三民路88號",
   "Latitude":25.0854623,
   "Longitude":121.4737111,
   "Tel":"02-22888920"
 },
 {
   "Name":"祐欣動物醫院",
   "Address":"新北市蘆洲區光榮路66巷1號",
   "Latitude":25.0886495,
   "Longitude":121.4631045,
   "Tel":"02-8283-1299"
 },
 {
   "Name":"大寶動物醫院",
   "Address":"新北市蘆洲區信義路235巷2號",
   "Latitude":25.0790564,
   "Longitude":121.4734233,
   "Tel":"02-22831005"
 },
 {
   "Name":"愛樺動物醫院",
   "Address":"新北市蘆洲區民族路60號",
   "Latitude":25.0845766,
   "Longitude":121.4772742,
   "Tel":"02-22850093"
 },
 {
   "Name":"蘆洲動物醫院",
   "Address":"新北市蘆洲區中山二路8號1樓",
   "Latitude":25.0821151,
   "Longitude":121.4754501,
   "Tel":"02-22859117"
 },
 {
   "Name":"嘉安犬貓醫院",
   "Address":"新北市蘆洲區三民路169號",
   "Latitude":25.0870385,
   "Longitude":121.4711161,
   "Tel":"02-28480806"
 },
 {
   "Name":"愛普生動物醫院",
   "Address":"新北市蘆洲區集賢路228號1樓",
   "Latitude":25.08641,
   "Longitude":121.482124,
   "Tel":"(02)2285-2001"
 },
 {
   "Name":"德興動物醫院",
   "Address":"新北市蘆洲區長安街62號",
   "Latitude":25.079946,
   "Longitude":121.46295,
   "Tel":"(02)2848-0240"
 },
 {
   "Name":"家福動物醫院",
   "Address":"新北市蘆洲區光華路157號",
   "Latitude":25.0819993,
   "Longitude":121.4652733,
   "Tel":"(02)2282-2332"
 },
 {
   "Name":"三林動物醫院",
   "Address":"新北市蘆洲區光華路150巷40號",
   "Latitude":25.0835387,
   "Longitude":121.4650021,
   "Tel":"02-22839959"
 },
 {
   "Name":"伊娃動物醫院",
   "Address":"新北市蘆洲區永平街32巷12弄18號1樓",
   "Latitude":25.0910369,
   "Longitude":121.4597811,
   "Tel":"(02)2285-0288"
 },
 {
   "Name":"雅旺動物醫院",
   "Address":"新北市蘆洲區民族路522號",
   "Latitude":25.0900065,
   "Longitude":121.4689901,
   "Tel":"(02)2848-0148"
 },
 {
   "Name":"忠正動物醫院",
   "Address":"新北市蘆洲區中正路277號",
   "Latitude":25.087723,
   "Longitude":121.466919,
   "Tel":"(02)2848-9283"
 },
 {
   "Name":"信安家畜醫院",
   "Address":"新北市蘆洲區中正路142號",
   "Latitude":25.0853009,
   "Longitude":121.469071,
   "Tel":"(02)2847-9181"
 },
 {
   "Name":"增安動物醫院",
   "Address":"新北市蘆洲區中山一路169號",
   "Latitude":25.0813219,
   "Longitude":121.475159,
   "Tel":"(02)8285-0255"
 },
 {
   "Name":"欣欣動物醫院",
   "Address":"新北市蘆洲區中山一路119號",
   "Latitude":25.0815434,
   "Longitude":121.476076,
   "Tel":"(02)2282-5058"
 },
 {
   "Name":"愛寶動物醫院",
   "Address":"新北市五股區中興路4段49號",
   "Latitude":25.0829647,
   "Longitude":121.4380463,
   "Tel":"(02)8295-2268"
 },
 {
   "Name":"蓮心動物醫院",
   "Address":"新北市五股區工商路40號",
   "Latitude":25.0839035,
   "Longitude":121.4392237,
   "Tel":"(02)8295-8237"
 },
 {
   "Name":"貝貝家畜醫院",
   "Address":"新北市八里區中山路2段261號3樓",
   "Latitude":25.1499189,
   "Longitude":121.4044258,
   "Tel":"02-26107234"
 },
 {
   "Name":"麗園動物醫院-八里分院",
   "Address":"新北市八里區中山路二段421號1樓",
   "Latitude":25.1461765,
   "Longitude":121.3970986,
   "Tel":"(02)8630-2502"
 },
 {
   "Name":"芸林動物醫院",
   "Address":"新北市淡水區民生路8號",
   "Latitude":25.1377946,
   "Longitude":121.4607814,
   "Tel":"02-28085190"
 },
 {
   "Name":"永生獸醫院",
   "Address":"新北市淡水區水源里楓樹湖12-6號",
   "Latitude":25.1878364,
   "Longitude":121.4985303,
   "Tel":"02-25212714"
 },
 {
   "Name":"上哲動物醫院-沙崙店",
   "Address":"新北市淡水區沙崙路6號1樓",
   "Latitude":25.1809612,
   "Longitude":121.4205474,
   "Tel":"(02)2805-5534"
 },
 {
   "Name":"四季動物醫院",
   "Address":"新北市淡水區民族路33巷16-19號",
   "Latitude":25.136105,
   "Longitude":121.463037,
   "Tel":"(02)2809-9591"
 },
 {
   "Name":"哲生動物醫院",
   "Address":"新北市淡水區民族路29巷40號1樓",
   "Latitude":25.1370358,
   "Longitude":121.4616708,
   "Tel":"(02)2809-2293"
 },
 {
   "Name":"黃動物醫院",
   "Address":"新北市淡水區北新路31號1樓",
   "Latitude":25.1777948,
   "Longitude":121.4449825,
   "Tel":"(02)2629-7384"
 },
 {
   "Name":"唯仁動物醫院",
   "Address":"新北市淡水區中正東路二段121號",
   "Latitude":25.1498388,
   "Longitude":121.459989,
   "Tel":"02-28081256"
 },
 {
   "Name":"聖愛動物醫院",
   "Address":"新北市淡水區中正東路6號",
   "Latitude":25.1635122,
   "Longitude":121.4514363,
   "Tel":"(02)2622-3824"
 },
 {
   "Name":"淡水動物醫院",
   "Address":"新北市淡水區中山路159之2號1樓",
   "Latitude":25.1731859,
   "Longitude":121.4406261,
   "Tel":"(02)2621-7987"
 },
 {
   "Name":"維康動物醫院",
   "Address":"新北市淡水區中山北路一段190號",
   "Latitude":25.179186,
   "Longitude":121.444813,
   "Tel":"(02)2628-3506"
 },
 {
   "Name":"竹圍動物醫院",
   "Address":"新北市淡水區民權路141號",
   "Latitude":25.1364813,
   "Longitude":121.4600617,
   "Tel":"(02)2809-5971"
 }
]