[
  {
    "Name": "躍犬獸醫院",
    "Address": "屏東縣屏東市忠孝路169-1號",
    "Latitude": 22.6771806,
    "Longitude": 120.4875371,
    "Tel": "08-7333341"
  },
  {
    "Name": "龍勳家畜醫院",
    "Address": "屏東縣屏東市屏東市杭州街39-2號",
    "Latitude": 22.6734982,
    "Longitude": 120.4911934,
    "Tel": "08-7327716"
  },
  {
    "Name": "龍德動物醫院",
    "Address": "屏東縣屏東市瑞光路二段364號",
    "Latitude": 22.681022,
    "Longitude": 120.505757,
    "Tel": "08-7370396"
  },
  {
    "Name": "龍泉家畜醫院",
    "Address": "屏東縣屏東市華山里華二街108巷7號",
    "Latitude": 22.6834107,
    "Longitude": 120.4995782,
    "Tel": "08-7701210"
  },
  {
    "Name": "獸安動物醫院",
    "Address": "屏東縣屏東市鵬程里光武一巷1-14號",
    "Latitude": 22.6658144,
    "Longitude": 120.4548656,
    "Tel": "08-7650108"
  },
  {
    "Name": "嘉元動物醫院",
    "Address": "屏東縣屏東市忠孝路108-11號",
    "Latitude": 22.671843,
    "Longitude": 120.480585,
    "Tel": "08-7321210"
  },
  {
    "Name": "農安獸醫院",
    "Address": "屏東縣屏東市屏東市歸仁路188號",
    "Latitude": 22.661537,
    "Longitude": 120.507012,
    "Tel": "08-7227924"
  },
  {
    "Name": "泰棟獸醫院",
    "Address": "屏東縣屏東市公成路14號",
    "Latitude": 22.6394426,
    "Longitude": 120.4837995,
    "Tel": "08-7530835"
  },
  {
    "Name": "漂亮寶貝犬醫院",
    "Address": "屏東縣屏東市大連路62-15號",
    "Latitude": 22.6807813,
    "Longitude": 120.5003065,
    "Tel": "08-7377545"
  },
  {
    "Name": "富台動物醫院",
    "Address": "屏東縣屏東市重慶路211號",
    "Latitude": 22.6772094,
    "Longitude": 120.4829579,
    "Tel": "08-7656773"
  },
  {
    "Name": "益源家畜醫院",
    "Address": "屏東縣屏東市廣東路506號",
    "Latitude": 22.6818844,
    "Longitude": 120.5003247,
    "Tel": "08-7365549"
  },
  {
    "Name": "亞東家畜醫院",
    "Address": "屏東縣屏東市龍華路235號",
    "Latitude": 22.6340993,
    "Longitude": 120.4803638,
    "Tel": "08-7365206"
  },
  {
    "Name": "高生動物醫院",
    "Address": "屏東縣屏東市公園東路82-4號",
    "Latitude": 22.672126,
    "Longitude": 120.498791,
    "Tel": "08-7231743"
  },
  {
    "Name": "屏安獸醫院",
    "Address": "屏東縣屏東市中山路61-12號",
    "Latitude": 22.6747862,
    "Longitude": 120.4847914,
    "Tel": "08-7336069"
  },
  {
    "Name": "東南獸醫院",
    "Address": "屏東縣屏東市武順街30巷20弄4號",
    "Latitude": 22.6555655,
    "Longitude": 120.4750876,
    "Tel": "08-7527493"
  },
  {
    "Name": "周建光獸醫診所",
    "Address": "屏東縣屏東市廈門街21號",
    "Latitude": 22.6703955,
    "Longitude": 120.4938843,
    "Tel": "08-7339045"
  },
  {
    "Name": "育犬獸醫院",
    "Address": "屏東縣屏東市廣東路113號",
    "Latitude": 22.6730748,
    "Longitude": 120.4994995,
    "Tel": "08-7225860"
  },
  {
    "Name": "忠興動物醫院",
    "Address": "屏東縣屏東市高豐街66巷4號",
    "Latitude": 22.6752736,
    "Longitude": 120.502645,
    "Tel": "08-7226389"
  },
  {
    "Name": "明星動物醫院",
    "Address": "屏東縣屏東市前進里清進巷136號",
    "Latitude": 22.65046,
    "Longitude": 120.464428,
    "Tel": "08-7522232"
  },
  {
    "Name": "宏恩動物醫院",
    "Address": "屏東縣屏東市林森路1巷125號",
    "Latitude": 22.6663006,
    "Longitude": 120.5030222,
    "Tel": "08-7238326"
  },
  {
    "Name": "光華動物醫院",
    "Address": "屏東縣屏東市和平路66號",
    "Latitude": 22.6675332,
    "Longitude": 120.4787965,
    "Tel": "08-7552518"
  },
  {
    "Name": "正安動物醫院",
    "Address": "屏東縣屏東市中山路304號",
    "Latitude": 22.6869797,
    "Longitude": 120.4844243,
    "Tel": "08-7325518"
  },
  {
    "Name": "六雅獸醫院",
    "Address": "屏東縣屏東市民生路12-17號7樓1室",
    "Latitude": 22.66589,
    "Longitude": 120.501411,
    "Tel": "08-7233429"
  },
  {
    "Name": "王德裕動物醫院",
    "Address": "屏東縣屏東市信和巷4-2號",
    "Latitude": 22.6820863,
    "Longitude": 120.4899748,
    "Tel": "08-7338428"
  },
  {
    "Name": "王德裕動物醫院",
    "Address": "屏東縣屏東市信和巷4-2號",
    "Latitude": 22.6820863,
    "Longitude": 120.4899748,
    "Tel": "08-7338428"
  },
  {
    "Name": "沛特動物醫院",
    "Address": "屏東縣屏東市廣東路766號",
    "Latitude": 22.6873048,
    "Longitude": 120.4928067,
    "Tel": "08-7669933"
  },
  {
    "Name": "賽諾菲動物醫院",
    "Address": "屏東縣屏東市廣東路29號",
    "Latitude": 22.6697114,
    "Longitude": 120.4983652,
    "Tel": "08-7220612"
  },
  {
    "Name": "嘉慶動物醫院",
    "Address": "屏東縣屏東市復興南路一段100號",
    "Latitude": 22.653521,
    "Longitude": 120.4859039,
    "Tel": "08-7532605"
  },
  {
    "Name": "成功動物醫院",
    "Address": "屏東縣屏東市勝利路208之2號",
    "Latitude": 22.679057,
    "Longitude": 120.4788783,
    "Tel": "08-7669722"
  },
  {
    "Name": "民生動物醫院",
    "Address": "屏東縣屏東市民生路61-23號",
    "Latitude": 22.66453,
    "Longitude": 120.502795,
    "Tel": "08-7236286"
  },
  {
    "Name": "連心動物綜合醫院",
    "Address": "屏東縣屏東市中正路648號",
    "Latitude": 22.6880689,
    "Longitude": 120.4979249,
    "Tel": "08-7386199"
  },
  {
    "Name": "樂犬動物醫院",
    "Address": "屏東縣屏東市中正路610號",
    "Latitude": 22.6870663,
    "Longitude": 120.4968623,
    "Tel": "08-7366888"
  },
  {
    "Name": "家犬動物醫院",
    "Address": "屏東縣屏東市中正路193號",
    "Latitude": 22.6798657,
    "Longitude": 120.4911306,
    "Tel": "08-7325866"
  },
  {
    "Name": "愛生動物醫院",
    "Address": "屏東縣屏東市大興路24號",
    "Latitude": 22.6672353,
    "Longitude": 120.4776786,
    "Tel": "08-7533229"
  },
  {
    "Name": "百齡動物醫院",
    "Address": "屏東縣屏東市大連路62-15號",
    "Latitude": 22.6807813,
    "Longitude": 120.5003065,
    "Tel": "08-7377545"
  },
  {
    "Name": "畜博動物醫院",
    "Address": "屏東縣屏東市豐榮街189號",
    "Latitude": 22.680866,
    "Longitude": 120.503963,
    "Tel": "08-7381141"
  },
  {
    "Name": "人仁動物醫院",
    "Address": "屏東縣屏東市勝利路57號",
    "Latitude": 22.6789827,
    "Longitude": 120.4901727,
    "Tel": "08-7337733"
  },
  {
    "Name": "宏仁犬貓動物醫院",
    "Address": "屏東縣屏東市民權路40號",
    "Latitude": 22.6716736,
    "Longitude": 120.4916886,
    "Tel": "08-7329696"
  },
  {
    "Name": "中華家畜醫院",
    "Address": "屏東縣屏東市民學路36-2號",
    "Latitude": 22.672844,
    "Longitude": 120.505508,
    "Tel": "08-7235736"
  },
  {
    "Name": "大同動物醫院",
    "Address": "屏東縣屏東市民族路222號",
    "Latitude": 22.671581,
    "Longitude": 120.4798651,
    "Tel": "08-7339215"
  },
  {
    "Name": "慶安動物醫院",
    "Address": "屏東縣屏東市民生路12-12號",
    "Latitude": 22.665778,
    "Longitude": 120.501244,
    "Tel": "08-7211826"
  },
  {
    "Name": "里鴻賽鴿水產動物綜合醫院",
    "Address": "屏東縣里港鄉鐵店路34-13號",
    "Latitude": 22.777345,
    "Longitude": 120.5015863,
    "Tel": "08-7759607"
  },
  {
    "Name": "嘉惠動物醫院",
    "Address": "屏東縣里港鄉里港路133號",
    "Latitude": 22.7773445,
    "Longitude": 120.4970616,
    "Tel": "08-7755686"
  },
  {
    "Name": "梁景堂家畜診所",
    "Address": "屏東縣高樹鄉興中路121-3號",
    "Latitude": 22.8286275,
    "Longitude": 120.6005179,
    "Tel": "08-7961888"
  },
  {
    "Name": "李正雄動物醫院",
    "Address": "屏東縣高樹鄉興店路38-5號",
    "Latitude": 22.7851679,
    "Longitude": 120.5594728,
    "Tel": "08-7963702"
  },
  {
    "Name": "鍾獸醫家畜醫院",
    "Address": "屏東縣鹽埔鄉北村中山路52號",
    "Latitude": 22.7575265,
    "Longitude": 120.5775435,
    "Tel": "08-7932126"
  },
  {
    "Name": "興倫家畜診所",
    "Address": "屏東縣鹽埔鄉新彭厝村莒光路6-3號",
    "Latitude": 22.759382,
    "Longitude": 120.543578,
    "Tel": "08-7932602"
  },
  {
    "Name": "賴家畜醫院",
    "Address": "屏東縣長治鄉進興村復興路94號",
    "Latitude": 22.6780312,
    "Longitude": 120.5347214,
    "Tel": "08-7369086"
  },
  {
    "Name": "黃家畜診所",
    "Address": "屏東縣長治鄉繁昌村中正路6-3號",
    "Latitude": 22.7033989,
    "Longitude": 120.5761996,
    "Tel": "08-7624053"
  },
  {
    "Name": "森山家畜醫院",
    "Address": "屏東縣麟洛鄉中正路29號",
    "Latitude": 22.6502814,
    "Longitude": 120.5257794,
    "Tel": "08-7231296"
  },
  {
    "Name": "林家畜醫院",
    "Address": "屏東縣麟洛鄉中正路102號",
    "Latitude": 22.6474938,
    "Longitude": 120.5247277,
    "Tel": "08-7222477"
  },
  {
    "Name": "李岡星動物醫院",
    "Address": "屏東縣麟洛鄉中正路75號",
    "Latitude": 22.649065,
    "Longitude": 120.52556,
    "Tel": "08-7229758"
  },
  {
    "Name": "成功動物醫院",
    "Address": "屏東縣竹田鄉西勢村光明路12-5號",
    "Latitude": 22.6211256,
    "Longitude": 120.5246342,
    "Tel": "08-7797388"
  },
  {
    "Name": "豐田家畜診所",
    "Address": "屏東縣內埔鄉和平路45-5號",
    "Latitude": 22.630127,
    "Longitude": 120.543139,
    "Tel": "08-7795773"
  },
  {
    "Name": "國立屏東科技大學附設動物醫院",
    "Address": "屏東縣內埔鄉學府路1號",
    "Latitude": 22.64303,
    "Longitude": 120.609966,
    "Tel": "08-7740290"
  },
  {
    "Name": "連興家畜醫院",
    "Address": "屏東縣內埔鄉學人路717號",
    "Latitude": 22.607905,
    "Longitude": 120.564126,
    "Tel": "08-7791045"
  },
  {
    "Name": "百齡動物醫院",
    "Address": "屏東縣內埔鄉通安路53號",
    "Latitude": 22.633448,
    "Longitude": 120.598895,
    "Tel": "08-7781391"
  },
  {
    "Name": "吉祥動物醫院",
    "Address": "屏東縣內埔鄉內埔村仁智路40號",
    "Latitude": 22.61092,
    "Longitude": 120.566714,
    "Tel": "08-7782809"
  },
  {
    "Name": "加福動物醫院",
    "Address": "屏東縣內埔鄉內田村永光路10-3號5樓",
    "Latitude": 22.6088833,
    "Longitude": 120.5642319,
    "Tel": "08-7799313"
  },
  {
    "Name": "皮皮犬貓專科醫院",
    "Address": "屏東縣內埔鄉中林路1161巷41號",
    "Latitude": 22.6430996,
    "Longitude": 120.5957791,
    "Tel": "08-7703486"
  },
  {
    "Name": "立犬動物醫院",
    "Address": "屏東縣內埔鄉勝利路12號",
    "Latitude": 22.616315,
    "Longitude": 120.570005,
    "Tel": "08-7786225"
  },
  {
    "Name": "福爾摩莎動物醫院",
    "Address": "屏東縣內埔鄉光明路525-1號",
    "Latitude": 22.615858,
    "Longitude": 120.5701643,
    "Tel": "08-7782018"
  },
  {
    "Name": "廣安家畜醫院",
    "Address": "屏東縣萬丹鄉廣安村90號",
    "Latitude": 22.6132516,
    "Longitude": 120.4906758,
    "Tel": "08-7783089"
  },
  {
    "Name": "芳源家畜醫院",
    "Address": "屏東縣萬丹鄉萬全村37-2號",
    "Latitude": 22.5891182,
    "Longitude": 120.4910859,
    "Tel": "08-7776792"
  },
  {
    "Name": "社皮家畜醫院",
    "Address": "屏東縣萬丹鄉社皮村31-26號",
    "Latitude": 22.6185691,
    "Longitude": 120.4686684,
    "Tel": "08-7072861"
  },
  {
    "Name": "安生動物醫院",
    "Address": "屏東縣萬丹鄉萬全村73號",
    "Latitude": 22.587929,
    "Longitude": 120.489695,
    "Tel": "08-7770601"
  },
  {
    "Name": "大興動物醫院",
    "Address": "屏東縣萬丹鄉興全村大興路270號",
    "Latitude": 22.5484917,
    "Longitude": 120.499883,
    "Tel": "08-7772190"
  },
  {
    "Name": "東立動物醫院",
    "Address": "屏東縣萬丹鄉和平東路37號",
    "Latitude": 22.5884493,
    "Longitude": 120.4914275,
    "Tel": "08-7779638"
  },
  {
    "Name": "懷恩犬病醫院",
    "Address": "屏東縣潮州鎮建基路84號",
    "Latitude": 22.5504357,
    "Longitude": 120.5422383,
    "Tel": "08-7893570"
  },
  {
    "Name": "潮州家畜醫院",
    "Address": "屏東縣潮州鎮四維路392號",
    "Latitude": 22.557493,
    "Longitude": 120.55014,
    "Tel": "08-7894676"
  },
  {
    "Name": "劉世財犬科診所",
    "Address": "屏東縣潮州鎮建基路66號",
    "Latitude": 22.5503398,
    "Longitude": 120.5425795,
    "Tel": "08-7882656"
  },
  {
    "Name": "國勝家畜診所",
    "Address": "屏東縣潮州鎮建基路172號",
    "Latitude": 22.5512846,
    "Longitude": 120.5404161,
    "Tel": "08-7887436"
  },
  {
    "Name": "志祐動物醫院",
    "Address": "屏東縣潮州鎮朝昇路101號",
    "Latitude": 22.5555906,
    "Longitude": 120.5447434,
    "Tel": "08-7891741"
  },
  {
    "Name": "中心動物醫院",
    "Address": "屏東縣潮州鎮光春路121-2號",
    "Latitude": 22.542445,
    "Longitude": 120.537976,
    "Tel": "08-7885609"
  },
  {
    "Name": "雨聲動物醫院",
    "Address": "屏東縣潮州鎮新生里金陵街5號",
    "Latitude": 22.549803,
    "Longitude": 120.539506,
    "Tel": "08-7803009"
  },
  {
    "Name": "源明動物醫院",
    "Address": "屏東縣潮州鎮長春路57號",
    "Latitude": 22.5451402,
    "Longitude": 120.5384653,
    "Tel": "08-7800013"
  },
  {
    "Name": "延平動物醫院",
    "Address": "屏東縣潮州鎮延平路173號",
    "Latitude": 22.555726,
    "Longitude": 120.540161,
    "Tel": "08-7800362"
  },
  {
    "Name": "永坤動物醫院",
    "Address": "屏東縣潮州鎮永坤路137號",
    "Latitude": 22.553445,
    "Longitude": 120.541774,
    "Tel": "08-7897711"
  },
  {
    "Name": "鴻愛動物醫院",
    "Address": "屏東縣潮州鎮中洲路177號",
    "Latitude": 22.541454,
    "Longitude": 120.539393,
    "Tel": "08-7890340"
  },
  {
    "Name": "王二郎動物醫院",
    "Address": "屏東縣崁頂鄉舊店路16號",
    "Latitude": 22.5415038,
    "Longitude": 120.5130415,
    "Tel": "08-8631723"
  },
  {
    "Name": "張達和動物醫院",
    "Address": "屏東縣新埤鄉新埤村新華路47號",
    "Latitude": 22.4664529,
    "Longitude": 120.5507012,
    "Tel": "08-7971253"
  },
  {
    "Name": "聯合動物醫院",
    "Address": "屏東縣東港鎮中正路一段226號",
    "Latitude": 22.4748298,
    "Longitude": 120.4593907,
    "Tel": "08-8355538"
  },
  {
    "Name": "東港御犬獸醫院",
    "Address": "屏東縣東港鎮中正路191號",
    "Latitude": 22.4690035,
    "Longitude": 120.4512053,
    "Tel": "08-8330407"
  },
  {
    "Name": "中山動物醫院",
    "Address": "屏東縣東港鎮中山路88-3號",
    "Latitude": 22.4650694,
    "Longitude": 120.453876,
    "Tel": "08-8312142"
  },
  {
    "Name": "聯合賽鴿犬貓醫院",
    "Address": "屏東縣東港鎮中正路一段226號",
    "Latitude": 22.4748298,
    "Longitude": 120.4593907,
    "Tel": "08-8355538"
  },
  {
    "Name": "中山動物醫院",
    "Address": "屏東縣東港鎮中山路88-3號",
    "Latitude": 22.4650694,
    "Longitude": 120.453876,
    "Tel": "08-8312142"
  },
  {
    "Name": "枋寮動物醫院",
    "Address": "屏東縣枋寮鄉德興路92-2號",
    "Latitude": 22.3673629,
    "Longitude": 120.5920019,
    "Tel": "08-8780949"
  },
  {
    "Name": "至平動物醫院",
    "Address": "屏東縣枋寮鄉內寮村內寮路6號",
    "Latitude": 22.391041,
    "Longitude": 120.614806,
    "Tel": "08-8714982"
  },
  {
    "Name": "愛心獸醫院",
    "Address": "屏東縣恆春鎮恆南路105-1號",
    "Latitude": 21.996284,
    "Longitude": 120.7451495,
    "Tel": "08-8891767"
  },
  {
    "Name": "永坤動物醫院",
    "Address": "屏東縣恆春鎮中正路146-1號",
    "Latitude": 22.0046321,
    "Longitude": 120.7440717,
    "Tel": "08-8897711"
  }
]