[
  {
    "Name": "中農寵物保健中心",
    "Address": "台中市中區臺中路283號",
    "Latitude": 24.1287108,
    "Longitude": 120.685141,
    "Tel": "04-22810010"
  },
  {
    "Name": "鑫鑫動物醫院",
    "Address": "台中市中區中正路310號",
    "Latitude": 24.2551425,
    "Longitude": 120.8254867,
    "Tel": "04-22254169"
  },
  {
    "Name": "仁愛犬醫院",
    "Address": "台中市東區進化路122號",
    "Latitude": 24.145181,
    "Longitude": 120.694698,
    "Tel": "04-22126987"
  },
  {
    "Name": "巴斯德動物醫院",
    "Address": "台中市東區樂業路383號",
    "Latitude": 24.1382689,
    "Longitude": 120.704893,
    "Tel": "04-22154160"
  },
  {
    "Name": "健生動物醫院",
    "Address": "台中市東區建成路777號",
    "Latitude": 24.129975,
    "Longitude": 120.686727,
    "Tel": "04-22818681"
  },
  {
    "Name": "米懷谷動物醫院",
    "Address": "台中市東區大興街22號",
    "Latitude": 24.1305723,
    "Longitude": 120.6927465,
    "Tel": "04-22822679"
  },
  {
    "Name": "東大動物醫院",
    "Address": "台中市東區信義街43號",
    "Latitude": 24.1322991,
    "Longitude": 120.6845371,
    "Tel": "04-22204161"
  },
  {
    "Name": "富台動物醫院",
    "Address": "台中市東區自由路三段223號",
    "Latitude": 24.142913,
    "Longitude": 120.692321,
    "Tel": "04-22114331"
  },
  {
    "Name": "大安動物醫院",
    "Address": "台中市東區十甲路230號",
    "Latitude": 24.1443725,
    "Longitude": 120.7038142,
    "Tel": "04-22125619"
  },
  {
    "Name": "何康動物醫院",
    "Address": "台中市東區十甲東路657號",
    "Latitude": 24.1441109,
    "Longitude": 120.708755,
    "Tel": "04-22154869"
  },
  {
    "Name": "胖胖外科動物醫院",
    "Address": "台中市南區國光路58號",
    "Latitude": 24.1312482,
    "Longitude": 120.6767469,
    "Tel": "04 2229 7899"
  },
  {
    "Name": "合順動物醫院",
    "Address": "台中市南區美村路二段106巷21弄7號",
    "Latitude": 24.12756,
    "Longitude": 120.66183,
    "Tel": "04-2371742"
  },
  {
    "Name": "五福動物醫院",
    "Address": "台中市南區工學路13-10號",
    "Latitude": 24.1167246,
    "Longitude": 120.6674749,
    "Tel": "04-22620622"
  },
  {
    "Name": "祥億動物醫院",
    "Address": "台中市南區復興路1段259號",
    "Latitude": 24.1126759,
    "Longitude": 120.651488,
    "Tel": "04-22606450"
  },
  {
    "Name": "成大動物醫院",
    "Address": "台中市南區南平路16號",
    "Latitude": 24.1208825,
    "Longitude": 120.6629312,
    "Tel": "04-22655702"
  },
  {
    "Name": "中興大學獸醫教學醫院",
    "Address": "台中市南區國光路250-1號",
    "Latitude": 24.121243,
    "Longitude": 120.679154,
    "Tel": "04-22870180"
  },
  {
    "Name": "高生動物醫院",
    "Address": "台中市南區信義南街249號",
    "Latitude": 24.1302239,
    "Longitude": 120.679666,
    "Tel": "04-22211008"
  },
  {
    "Name": "聖愛動物醫院",
    "Address": "台中市南區復興路一段405號",
    "Latitude": 24.1159941,
    "Longitude": 120.6560052,
    "Tel": "04-22619245"
  },
  {
    "Name": "長和動物醫院",
    "Address": "台中市南區國光路45號",
    "Latitude": 24.131267,
    "Longitude": 120.67723,
    "Tel": "04-22219626"
  },
  {
    "Name": "迦南動物醫院",
    "Address": "台中市南區高工路285號",
    "Latitude": 24.1138949,
    "Longitude": 120.6649817,
    "Tel": "04-22651515"
  },
  {
    "Name": "佳恩動物醫院",
    "Address": "台中市南區美村路二段88號",
    "Latitude": 24.128502,
    "Longitude": 120.662011,
    "Tel": "04-23713806"
  },
  {
    "Name": "崇倫動物醫院",
    "Address": "台中市南區忠明南路578號",
    "Latitude": 24.130837,
    "Longitude": 120.657123,
    "Tel": "04-23718709"
  },
  {
    "Name": "加諾動物醫院",
    "Address": "台中市西區忠明路113號",
    "Latitude": 24.1612872,
    "Longitude": 120.6624021,
    "Tel": "04-23165366"
  },
  {
    "Name": "晨星動物醫院",
    "Address": "台中市西區大明街4號",
    "Latitude": 24.1389711,
    "Longitude": 120.6744162,
    "Tel": "04-22290816"
  },
  {
    "Name": "精明動物醫院",
    "Address": "台中市西區精明一街34號",
    "Latitude": 24.1568758,
    "Longitude": 120.6559898,
    "Tel": "04-23228477"
  },
  {
    "Name": "忠明動物醫院",
    "Address": "台中市西區向上南路1段184號",
    "Latitude": 24.145182,
    "Longitude": 120.652521,
    "Tel": "04-24753461"
  },
  {
    "Name": "大佳寵物醫院",
    "Address": "台中市西區華美西街1段203號",
    "Latitude": 24.160451,
    "Longitude": 120.6628525,
    "Tel": "04-23131759"
  },
  {
    "Name": "興緣動物醫院",
    "Address": "台中市西區五廊街63號",
    "Latitude": 24.1404578,
    "Longitude": 120.6692709,
    "Tel": "04-23729699"
  },
  {
    "Name": "裕源動物醫院",
    "Address": "台中市西區五權路2-199號",
    "Latitude": 24.1336132,
    "Longitude": 120.666742,
    "Tel": "04-23717741"
  },
  {
    "Name": "達爾文動物醫院",
    "Address": "台中市西區博館路157號",
    "Latitude": 24.1572632,
    "Longitude": 120.6640105,
    "Tel": "04-23262759"
  },
  {
    "Name": "豐陽動物醫院",
    "Address": "台中市西區林森路96號",
    "Latitude": 24.13783,
    "Longitude": 120.6707104,
    "Tel": "04-23780808"
  },
  {
    "Name": "臺中市世界聯合保護協會",
    "Address": "台中市西區四維街25-1號",
    "Latitude": 24.137138,
    "Longitude": 120.6758091,
    "Tel": "04-22290203"
  },
  {
    "Name": "陽光動物醫院",
    "Address": "台中市西區公益路228號",
    "Latitude": 24.1510278,
    "Longitude": 120.6556872,
    "Tel": "04-2320-2579"
  },
  {
    "Name": "惠犬動物醫院",
    "Address": "台中市西區美村路一段631號",
    "Latitude": 24.1369756,
    "Longitude": 120.6618654,
    "Tel": "04-2373-0123"
  },
  {
    "Name": "和平動物醫院",
    "Address": "台中市西區美村路一段346號",
    "Latitude": 24.145237,
    "Longitude": 120.661459,
    "Tel": "04-2305-9233"
  },
  {
    "Name": "東興動物醫院",
    "Address": "台中市西區東興路三段164號",
    "Latitude": 24.151251,
    "Longitude": 120.653228,
    "Tel": "04-2327-1908"
  },
  {
    "Name": "羅大宇動物醫院",
    "Address": "台中市西區存中街153號",
    "Latitude": 24.1412014,
    "Longitude": 120.6570149,
    "Tel": "04-2372-8378"
  },
  {
    "Name": "華碩動物醫院",
    "Address": "台中市西區向上路一段126號",
    "Latitude": 24.146951,
    "Longitude": 120.662558,
    "Tel": "04-2301-5098"
  },
  {
    "Name": "美安動物醫院",
    "Address": "台中市西區民生路380號",
    "Latitude": 24.1443333,
    "Longitude": 120.6617258,
    "Tel": "04-2302-6441"
  },
  {
    "Name": "百科動物醫院",
    "Address": "台中市西區忠明南路223號",
    "Latitude": 24.1480568,
    "Longitude": 120.6575852,
    "Tel": "04-2320-3752"
  },
  {
    "Name": "人人動物醫院",
    "Address": "台中市西區公正路146號",
    "Latitude": 24.1491503,
    "Longitude": 120.6611629,
    "Tel": "04-2302-8848"
  },
  {
    "Name": "全國動物醫院－台中總院",
    "Address": "台中市西區五權八街100號",
    "Latitude": 24.1341467,
    "Longitude": 120.662343,
    "Tel": "04-2371-0496"
  },
  {
    "Name": "全國動物醫院－精業分院",
    "Address": "台中市西區大業路3號",
    "Latitude": 24.1534313,
    "Longitude": 120.6548549,
    "Tel": "04-2310-3683"
  },
  {
    "Name": "威爾斯寵物村動物醫院",
    "Address": "台中市北區大雅路473-5號",
    "Latitude": 24.1691181,
    "Longitude": 120.6724335,
    "Tel": "04-22952272"
  },
  {
    "Name": "康熙動物醫院",
    "Address": "台中市北區天祥街2號",
    "Latitude": 24.1608777,
    "Longitude": 120.6963233,
    "Tel": "04-22360188"
  },
  {
    "Name": "庚欣動物醫院",
    "Address": "台中市北區雙十路2段77號",
    "Latitude": 24.1551769,
    "Longitude": 120.689532,
    "Tel": "04-22319663"
  },
  {
    "Name": "台碩動物醫院",
    "Address": "台中市北區大雅路320號",
    "Latitude": 24.2290107,
    "Longitude": 120.6446331,
    "Tel": "04-22082515"
  },
  {
    "Name": "潮慶動物醫院",
    "Address": "台中市北區漢口路3段171號",
    "Latitude": 24.167129,
    "Longitude": 120.670857,
    "Tel": "04-22917303"
  },
  {
    "Name": "五權動物醫院",
    "Address": "台中市北區五權路390號",
    "Latitude": 24.1527714,
    "Longitude": 120.6818025,
    "Tel": "04-22013909"
  },
  {
    "Name": "天一犬醫院",
    "Address": "台中市北區進化路547號",
    "Latitude": 24.158659,
    "Longitude": 120.694132,
    "Tel": "04-22335026"
  },
  {
    "Name": "犬揚動物醫院",
    "Address": "台中市北區英才路298號",
    "Latitude": 24.1558922,
    "Longitude": 120.6710106,
    "Tel": "04-2205-9822"
  },
  {
    "Name": "環亞動物醫院",
    "Address": "台中市北區五權路580號",
    "Latitude": 24.1539822,
    "Longitude": 120.6849362,
    "Tel": "04-2223-7470"
  },
  {
    "Name": "宏恩動物醫院",
    "Address": "台中市北區太原路一段426號",
    "Latitude": 24.164705,
    "Longitude": 120.666766,
    "Tel": "04-2203-0359"
  },
  {
    "Name": "全邑動物醫院",
    "Address": "台中市北區德化街227號",
    "Latitude": 24.1614801,
    "Longitude": 120.6847225,
    "Tel": "04-2238-1858"
  },
  {
    "Name": "永昌動物醫院",
    "Address": "台中市北區北屯路32號",
    "Latitude": 24.1618573,
    "Longitude": 120.6925706,
    "Tel": "04-2235-6236"
  },
  {
    "Name": "誠品動物醫院一心獸醫院",
    "Address": "台中市北區錦華街56號",
    "Latitude": 24.15606,
    "Longitude": 120.6885107,
    "Tel": "04--22351677"
  },
  {
    "Name": "田中政男動物醫院",
    "Address": "台中市北區進化北路378之24號",
    "Latitude": 24.1633485,
    "Longitude": 120.6790567,
    "Tel": "04-2235-1880"
  },
  {
    "Name": "春天動物醫院",
    "Address": "台中市北區進化北路294號",
    "Latitude": 24.1632818,
    "Longitude": 120.6827052,
    "Tel": "04-2235-0838"
  },
  {
    "Name": "全國動物醫院－貓醫院",
    "Address": "台中市北區進化北路162號",
    "Latitude": 24.163353,
    "Longitude": 120.686195,
    "Tel": "04-2237-7025"
  },
  {
    "Name": "沐恩動物醫院",
    "Address": "台中市北區健行路865號",
    "Latitude": 24.159047,
    "Longitude": 120.6694723,
    "Tel": "04-2207-7271"
  },
  {
    "Name": "上群動物醫院",
    "Address": "台中市北區健行路76號",
    "Latitude": 24.1590619,
    "Longitude": 120.6891369,
    "Tel": "04-2230-7765"
  },
  {
    "Name": "信安動物醫院",
    "Address": "台中市北區健行路638號",
    "Latitude": 24.159435,
    "Longitude": 120.675044,
    "Tel": "04-2205-5045"
  },
  {
    "Name": "宏光動物醫院",
    "Address": "台中市北區健行路588號",
    "Latitude": 24.1593069,
    "Longitude": 120.677402,
    "Tel": "04-2203-3280"
  },
  {
    "Name": "侏儸紀野生動物專科醫院",
    "Address": "台中市北區英才路351號",
    "Latitude": 24.1553642,
    "Longitude": 120.6693297,
    "Tel": "04-2202-8717"
  },
  {
    "Name": "犬揚動物醫院",
    "Address": "台中市北區英才路302號",
    "Latitude": 24.1558949,
    "Longitude": 120.6709347,
    "Tel": "04-2205-9822"
  },
  {
    "Name": "米谷動物醫院",
    "Address": "台中市北區青島路3段212號",
    "Latitude": 24.168276,
    "Longitude": 120.6842445,
    "Tel": "04-2238-0791"
  },
  {
    "Name": "中台動物醫院－大雅分院",
    "Address": "台中市北區大雅路579號",
    "Latitude": 24.2289919,
    "Longitude": 120.644544,
    "Tel": "04-2292-2955"
  },
  {
    "Name": "全國動物醫院-大雅分院",
    "Address": "台中市北區大雅路509號",
    "Latitude": 24.2289919,
    "Longitude": 120.644544,
    "Tel": "04-2295-4667"
  },
  {
    "Name": "東南動物醫院",
    "Address": "台中市北區大雅路486號",
    "Latitude": 24.2289622,
    "Longitude": 120.6445725,
    "Tel": "04-2296-0753"
  },
  {
    "Name": "聖心犬貓醫院",
    "Address": "台中市北區崇德路一段582",
    "Latitude": 24.1668204,
    "Longitude": 120.6850511,
    "Tel": "04-2238-2896"
  },
  {
    "Name": "祐田動物醫院",
    "Address": "台中市北區崇德二路一段28號",
    "Latitude": 24.1756791,
    "Longitude": 120.6955202,
    "Tel": "04-2247-5349"
  },
  {
    "Name": "全科動物醫院",
    "Address": "台中市北區中清路99-29號",
    "Latitude": 24.179541,
    "Longitude": 120.667389,
    "Tel": "04-22963997"
  },
  {
    "Name": "吉田動物醫院",
    "Address": "台中市北區北屯路206號",
    "Latitude": 24.167051,
    "Longitude": 120.695892,
    "Tel": "04--22344388"
  },
  {
    "Name": "永昌動物醫院",
    "Address": "台中市北區北屯路32號",
    "Latitude": 24.1618573,
    "Longitude": 120.6925706,
    "Tel": "04-2235-6236"
  },
  {
    "Name": "益生家畜醫院",
    "Address": "台中市北區學士路254號",
    "Latitude": 24.1612847,
    "Longitude": 120.681085,
    "Tel": "(02)22324351"
  },
  {
    "Name": "瑞比動物醫院",
    "Address": "台中市北屯區文心路四段690號",
    "Latitude": 24.1716559,
    "Longitude": 120.687054,
    "Tel": "04-2238-6609"
  },
  {
    "Name": "強生動物醫院",
    "Address": "台中市北屯區漢口路1段137號",
    "Latitude": 24.1627989,
    "Longitude": 120.656954,
    "Tel": "04-23132309"
  },
  {
    "Name": "爾斯動物醫院北屯分院",
    "Address": "台中市北屯區崇德路2段281號",
    "Latitude": 24.1769714,
    "Longitude": 120.6856143,
    "Tel": "04-22428888"
  },
  {
    "Name": "東南動物醫院崇德院",
    "Address": "台中市北屯區崇德路2段30號",
    "Latitude": 24.1692199,
    "Longitude": 120.685614,
    "Tel": "04-22363208"
  },
  {
    "Name": "宏典動物醫院",
    "Address": "台中市北屯區大連路2段15號",
    "Latitude": 24.176407,
    "Longitude": 120.682165,
    "Tel": "04-22416645"
  },
  {
    "Name": "惠生動物醫院",
    "Address": "台中市北屯區山西路2段219號",
    "Latitude": 24.174078,
    "Longitude": 120.676082,
    "Tel": "04-22927759"
  },
  {
    "Name": "新永吉動物醫院",
    "Address": "台中市北屯區中清路108-6號",
    "Latitude": 24.186935,
    "Longitude": 120.663553,
    "Tel": "04-24258019"
  },
  {
    "Name": "可安動物醫院",
    "Address": "台中市北屯區河北路2段58號",
    "Latitude": 24.1699841,
    "Longitude": 120.6833432,
    "Tel": "04-22366476"
  },
  {
    "Name": "光正獸醫院",
    "Address": "台中市北屯區東山路2段65-14號",
    "Latitude": 24.1875603,
    "Longitude": 120.7445888,
    "Tel": "04-22391910"
  },
  {
    "Name": "崇德動物醫院",
    "Address": "台中市北屯區崇德路二路二段159號",
    "Latitude": 24.1773635,
    "Longitude": 120.6854352,
    "Tel": "04-2242-3411"
  },
  {
    "Name": "聖心犬貓醫院",
    "Address": "台中市北屯區崇德路一段582號",
    "Latitude": 24.167672,
    "Longitude": 120.685375,
    "Tel": "04-2238-2896"
  },
  {
    "Name": "永信動物醫院",
    "Address": "台中市北屯區東山路一段216-22號",
    "Latitude": 24.173388,
    "Longitude": 120.713991,
    "Tel": "04-2437-1487"
  },
  {
    "Name": "鴻安動物醫院",
    "Address": "台中市北屯區東山路一段152之2號",
    "Latitude": 24.1697223,
    "Longitude": 120.7076117,
    "Tel": "04-2436-7848"
  },
  {
    "Name": "德愛動物醫院",
    "Address": "台中市北屯區昌平路一段95-9號",
    "Latitude": 24.1723509,
    "Longitude": 120.690425,
    "Tel": "04-3503-5057"
  },
  {
    "Name": "亞東動物醫院",
    "Address": "台中市北屯區昌平路一段27號",
    "Latitude": 24.1666742,
    "Longitude": 120.6936287,
    "Tel": "04-2233-6101"
  },
  {
    "Name": "可米動物醫院",
    "Address": "台中市北屯區大連路二段22號",
    "Latitude": 24.1761149,
    "Longitude": 120.682588,
    "Tel": "04-22410842"
  },
  {
    "Name": "濟生動物醫院",
    "Address": "台中市北屯區北平路三段75之12號",
    "Latitude": 24.171197,
    "Longitude": 120.681967,
    "Tel": "04-2238-5886"
  },
  {
    "Name": "東山動物醫院",
    "Address": "台中市北屯區北屯路281-4號",
    "Latitude": 24.16715,
    "Longitude": 120.695289,
    "Tel": "04-22316574"
  },
  {
    "Name": "全國動物醫院－北全分院",
    "Address": "台中市北屯區北屯路220號",
    "Latitude": 24.1680919,
    "Longitude": 120.696601,
    "Tel": "04-2236-0903"
  },
  {
    "Name": "全國動物醫院－文心分院",
    "Address": "台中市北屯區文心路四段325號",
    "Latitude": 24.1730282,
    "Longitude": 120.6804531,
    "Tel": "04-2247-8377"
  },
  {
    "Name": "富山動物醫院",
    "Address": "台中市北屯區中清路5-1號",
    "Latitude": 24.179884,
    "Longitude": 120.666883,
    "Tel": "04-2297-8178"
  },
  {
    "Name": "艾利動物醫院",
    "Address": "台中市西屯區惠中路二段41號",
    "Latitude": 24.1559635,
    "Longitude": 120.6412009,
    "Tel": "04-2258-9518"
  },
  {
    "Name": "福樂動物醫院",
    "Address": "台中市西屯區大隆路149號",
    "Latitude": 24.157645,
    "Longitude": 120.650055,
    "Tel": "04-23207030"
  },
  {
    "Name": "台大福科動物醫院",
    "Address": "台中市西屯區福科路961巷17號",
    "Latitude": 24.1865568,
    "Longitude": 120.6054937,
    "Tel": "04-24626199"
  },
  {
    "Name": "鄭獸醫院",
    "Address": "台中市西屯區中工三路66號",
    "Latitude": 24.1796563,
    "Longitude": 120.6190148,
    "Tel": "04-23589842"
  },
  {
    "Name": "凡賽爾賽鴿動物醫院",
    "Address": "台中市西屯區台中港路二段98-16號",
    "Latitude": 24.16556,
    "Longitude": 120.644875,
    "Tel": "04-23121880"
  },
  {
    "Name": "愛寶動物醫院",
    "Address": "台中市西屯區西屯路二段268之1號",
    "Latitude": 24.1737379,
    "Longitude": 120.644667,
    "Tel": "04-27066909"
  },
  {
    "Name": "全國動物醫院－中科分院",
    "Address": "台中市西屯區福科路537號",
    "Latitude": 24.1850463,
    "Longitude": 120.6178528,
    "Tel": "04-2461-7968"
  },
  {
    "Name": "台大動物醫院",
    "Address": "台中市西屯區漢口路二段3號",
    "Latitude": 24.1633138,
    "Longitude": 120.6575932,
    "Tel": "04-2313-2308"
  },
  {
    "Name": "六順動物醫院",
    "Address": "台中市西屯區烈美街173號",
    "Latitude": 24.181735,
    "Longitude": 120.642399,
    "Tel": "04-2701-5049"
  },
  {
    "Name": "諾德動物醫院",
    "Address": "台中市西屯區青海路二段207-2號",
    "Latitude": 24.1707028,
    "Longitude": 120.6446941,
    "Tel": "04-2706-5989"
  },
  {
    "Name": "冠生動物醫院",
    "Address": "台中市西屯區青海路二段163號",
    "Latitude": 24.169054,
    "Longitude": 120.6466112,
    "Tel": "04-2708-8102"
  },
  {
    "Name": "英國皇家動物醫院",
    "Address": "台中市西屯區河南路二段429號Ｂ1之2",
    "Latitude": 24.1705302,
    "Longitude": 120.6435928,
    "Tel": "04-2707-3887"
  },
  {
    "Name": "梅島動物醫院",
    "Address": "台中市西屯區西屯路三段148-37號",
    "Latitude": 24.185918,
    "Longitude": 120.623643,
    "Tel": "04-2462-6616"
  },
  {
    "Name": "天興動物醫院",
    "Address": "台中市西屯區西屯路二段103-3號",
    "Latitude": 24.1665971,
    "Longitude": 120.6517116,
    "Tel": "04-2317-2810"
  },
  {
    "Name": "永康動物醫院",
    "Address": "台中市西屯區永福路167號",
    "Latitude": 24.1859899,
    "Longitude": 120.621387,
    "Tel": "04-2461-5748"
  },
  {
    "Name": "慈愛動物醫院－中港分院",
    "Address": "台中市西屯區中港路二段64-11號",
    "Latitude": 24.162828,
    "Longitude": 120.6504589,
    "Tel": "04-2317-8558"
  },
  {
    "Name": "大敦寵物醫院",
    "Address": "台中市西屯區大墩十八街96號",
    "Latitude": 24.15738,
    "Longitude": 120.649197,
    "Tel": "04-2320-0208"
  },
  {
    "Name": "歐陽動物醫院",
    "Address": "台中市南屯區公益路二段632號",
    "Latitude": 24.1510806,
    "Longitude": 120.6329735,
    "Tel": "04-22556990"
  },
  {
    "Name": "大原動物醫院",
    "Address": "台中市南屯區黎明路二段165號1樓",
    "Latitude": 24.146046,
    "Longitude": 120.636268,
    "Tel": "04-23891108"
  },
  {
    "Name": "哈佛動物醫院",
    "Address": "台中市南屯區文心南三路691號",
    "Latitude": 24.1332243,
    "Longitude": 120.6431465,
    "Tel": "04-23808515"
  },
  {
    "Name": "健康動物醫院",
    "Address": "台中市南屯區大業路598號1樓",
    "Latitude": 24.1538798,
    "Longitude": 120.6353598,
    "Tel": "04-22550001"
  },
  {
    "Name": "永吉動物醫院",
    "Address": "台中市南屯區黎明路1段1191號",
    "Latitude": 24.1417246,
    "Longitude": 120.6378293,
    "Tel": "04-23892575"
  },
  {
    "Name": "犬保動物醫院",
    "Address": "台中市南屯區文山3街51巷12號",
    "Latitude": 24.148071,
    "Longitude": 120.61285,
    "Tel": "04-23892942"
  },
  {
    "Name": "凱文兄弟動物醫院",
    "Address": "台中市南屯區文心南三路538號",
    "Latitude": 24.133615,
    "Longitude": 120.645416,
    "Tel": "04-24750006"
  },
  {
    "Name": "長生動物醫院",
    "Address": "台中市南屯區南屯路二段52號",
    "Latitude": 24.135799,
    "Longitude": 120.653539,
    "Tel": "04-24722396"
  },
  {
    "Name": "信揚動物醫院",
    "Address": "台中市南屯區南屯路二段271號",
    "Latitude": 24.137,
    "Longitude": 120.64739,
    "Tel": "04-24727263"
  },
  {
    "Name": "心美動物醫院",
    "Address": "台中市南屯區文心路一段372號",
    "Latitude": 24.1491409,
    "Longitude": 120.647153,
    "Tel": "04-23279955"
  },
  {
    "Name": "溫馨動物醫院",
    "Address": "台中市南屯區公益路二段607號",
    "Latitude": 24.1509883,
    "Longitude": 120.6347662,
    "Tel": "04-22518648"
  },
  {
    "Name": "慈愛動物醫院－五權分院",
    "Address": "台中市南屯區五權西路二段67號",
    "Latitude": 24.1399249,
    "Longitude": 120.6527122,
    "Tel": "04-24716662"
  },
  {
    "Name": "崇仁動物醫院",
    "Address": "台中市南屯區五權西路二段395號",
    "Latitude": 24.1398131,
    "Longitude": 120.6453725,
    "Tel": "04-24738228"
  },
  {
    "Name": "全國動物醫院－七期分院",
    "Address": "台中市南屯區五權西路二段207號",
    "Latitude": 24.139826,
    "Longitude": 120.6491611,
    "Tel": "04-24712853"
  },
  {
    "Name": "金生動物醫院",
    "Address": "台中市南屯區大墩路671號",
    "Latitude": 24.1519522,
    "Longitude": 120.6496351,
    "Tel": "04-23282369"
  },
  {
    "Name": "中美獸醫院",
    "Address": "台中市南屯區大墩六街207號",
    "Latitude": 24.1426808,
    "Longitude": 120.6491228,
    "Tel": "04-24721566"
  },
  {
    "Name": "田心動物醫院",
    "Address": "台中市南屯區大墩二街82號",
    "Latitude": 24.1389797,
    "Longitude": 120.6518391,
    "Tel": "04-24737161"
  },
  {
    "Name": "ㄚ貓ㄚ狗動物醫院",
    "Address": "台中市南屯區大墩11街783號",
    "Latitude": 24.1482329,
    "Longitude": 120.6341464,
    "Tel": "04-23805811"
  },
  {
    "Name": "劍橋動物醫院",
    "Address": "台中市南屯區大進街526號",
    "Latitude": 24.15292,
    "Longitude": 120.65146,
    "Tel": "04-23275346"
  },
  {
    "Name": "吉米哈利動物醫院",
    "Address": "台中市南屯區大聖街250號",
    "Latitude": 24.1532756,
    "Longitude": 120.6507295,
    "Tel": "04-23206910"
  },
  {
    "Name": "聖愛動物醫院-太平分院",
    "Address": "台中市太平區中興路118之2號",
    "Latitude": 24.127067,
    "Longitude": 120.715036,
    "Tel": "04-22753341"
  },
  {
    "Name": "非凡動物醫院",
    "Address": "台中市太平區鵬儀路1-4號",
    "Latitude": 24.12825,
    "Longitude": 120.729636,
    "Tel": "04-22771269"
  },
  {
    "Name": "安可動物醫院",
    "Address": "台中市太平區太平路643號",
    "Latitude": 24.1265458,
    "Longitude": 120.7111977,
    "Tel": "04-22766688"
  },
  {
    "Name": "益生動物醫院",
    "Address": "台中市太平區宜昌路525號",
    "Latitude": 24.1480923,
    "Longitude": 120.7158017,
    "Tel": "04-22776577"
  },
  {
    "Name": "光佑動物醫院",
    "Address": "台中市太平區中興東路164號",
    "Latitude": 24.1311904,
    "Longitude": 120.7219111,
    "Tel": "04-2276-3058"
  },
  {
    "Name": "躍犬獸醫院",
    "Address": "台中市太平區新光里中山路四段31號",
    "Latitude": 24.1497709,
    "Longitude": 120.712898,
    "Tel": "04-2395-2328"
  },
  {
    "Name": "嘉基動物醫院",
    "Address": "台中市太平區宜昌路217號",
    "Latitude": 24.1406414,
    "Longitude": 120.7119104,
    "Tel": "04-2277-2847"
  },
  {
    "Name": "安和動物醫院",
    "Address": "台中市太平區太平路656號",
    "Latitude": 24.1265596,
    "Longitude": 120.711607,
    "Tel": "04-2270-5342"
  },
  {
    "Name": "名芯動物醫院",
    "Address": "台中市大里區爽文路899號",
    "Latitude": 24.1096944,
    "Longitude": 120.6747154,
    "Tel": "04 2418 0989"
  },
  {
    "Name": "愛普生動物醫院",
    "Address": "台中市大里區美群路46號",
    "Latitude": 24.085891,
    "Longitude": 120.708504,
    "Tel": "04-24950118"
  },
  {
    "Name": "瑞和動物醫院",
    "Address": "台中市大里區中興路1段426號",
    "Latitude": 24.0925649,
    "Longitude": 120.690819,
    "Tel": "04-24932524"
  },
  {
    "Name": "群力動物醫院",
    "Address": "台中市大里區永隆一街261號",
    "Latitude": 24.1044614,
    "Longitude": 120.6755956,
    "Tel": "04-24069160"
  },
  {
    "Name": "中華愛犬醫院",
    "Address": "台中市大里區中興路2段657號",
    "Latitude": 24.1162405,
    "Longitude": 120.6895732,
    "Tel": "04-24828784"
  },
  {
    "Name": "大生動物醫院",
    "Address": "台中市大里區新興路137號",
    "Latitude": 24.102624,
    "Longitude": 120.676037,
    "Tel": "04-24063431"
  },
  {
    "Name": "彩虹動物醫院",
    "Address": "台中市大里區國光路二段318號",
    "Latitude": 24.107392,
    "Longitude": 120.680734,
    "Tel": "04-24823365"
  },
  {
    "Name": "宜家動物醫院",
    "Address": "台中市大里區國光路二段555-6號",
    "Latitude": 24.112477,
    "Longitude": 120.6789572,
    "Tel": "04-2406-0719"
  },
  {
    "Name": "全國動物醫院－大里分院",
    "Address": "台中市大里區國光路二段441號",
    "Latitude": 24.1105723,
    "Longitude": 120.6793547,
    "Tel": "04-2407-7991"
  },
  {
    "Name": "中一寵物綜合醫院",
    "Address": "台中市大里區西榮路201號",
    "Latitude": 24.1095773,
    "Longitude": 120.6862358,
    "Tel": "04-2481-4507"
  },
  {
    "Name": "欣欣動物醫院",
    "Address": "台中市大里區立新街226號",
    "Latitude": 24.1070165,
    "Longitude": 120.7018025,
    "Tel": "04-2270-9087"
  },
  {
    "Name": "聖愛動物醫院 - 仁化分院",
    "Address": "台中市大里區仁化路770號",
    "Latitude": 24.0914297,
    "Longitude": 120.6908025,
    "Tel": "04-2496-6500"
  },
  {
    "Name": "聖愛動物醫院 - 大里分院",
    "Address": "台中市大里區中興路二段471號",
    "Latitude": 24.113798,
    "Longitude": 120.6896005,
    "Tel": "04-2483-4345"
  },
  {
    "Name": "馬汀動物醫院",
    "Address": "台中市大里區中興路二段386-4號",
    "Latitude": 24.1066064,
    "Longitude": 120.6898285,
    "Tel": "04-2486-4286"
  },
  {
    "Name": "啟仁動物醫院",
    "Address": "台中市大里區中興路一段364號",
    "Latitude": 24.09126,
    "Longitude": 120.692412,
    "Tel": "04-2493-3385"
  },
  {
    "Name": "新東南動物醫院",
    "Address": "台中市大里區中興路一段316-5號",
    "Latitude": 24.0903019,
    "Longitude": 120.693672,
    "Tel": "04-2495-3038"
  },
  {
    "Name": "慈濟動物醫院",
    "Address": "台中市大里區大明路312號",
    "Latitude": 24.1151169,
    "Longitude": 120.6817737,
    "Tel": "04-2481-1675"
  },
  {
    "Name": "愛犬動物醫院",
    "Address": "台中市霧峰區中正路1112號",
    "Latitude": 24.0696745,
    "Longitude": 120.6993315,
    "Tel": "04-23308787"
  },
  {
    "Name": "嘉恩動物醫院",
    "Address": "台中市霧峰區中正路1058號",
    "Latitude": 24.0681417,
    "Longitude": 120.6991747,
    "Tel": "04-23311118"
  },
  {
    "Name": "民昇動物醫院",
    "Address": "台中市烏日區中山路509號",
    "Latitude": 24.1064956,
    "Longitude": 120.618982,
    "Tel": "04-25632939"
  },
  {
    "Name": "育昇動物醫院",
    "Address": "台中市烏日區中山路一段424號",
    "Latitude": 24.1074725,
    "Longitude": 120.6369185,
    "Tel": "04-23366119"
  },
  {
    "Name": "泡泡動物醫院",
    "Address": "台中市豐原區成功路56號",
    "Latitude": 24.242767,
    "Longitude": 120.711603,
    "Tel": "04-25201088"
  },
  {
    "Name": "聖欣動物醫院",
    "Address": "台中市豐原區同安街183號",
    "Latitude": 24.2469254,
    "Longitude": 120.728185,
    "Tel": "04-25285100"
  },
  {
    "Name": "怡全動物醫院",
    "Address": "台中市豐原區富春街77號2樓",
    "Latitude": 24.2512466,
    "Longitude": 120.7175526,
    "Tel": "04-25222523"
  },
  {
    "Name": "回生動物醫院",
    "Address": "台中市豐原區圓環南路63號",
    "Latitude": 24.2458136,
    "Longitude": 120.7116422,
    "Tel": "04-25268181"
  },
  {
    "Name": "小熊犬醫院",
    "Address": "台中市豐原區圓環東路553號",
    "Latitude": 24.249607,
    "Longitude": 120.727518,
    "Tel": "04-25225888"
  },
  {
    "Name": "忠心動物醫院",
    "Address": "台中市豐原區水源路510號",
    "Latitude": 24.255397,
    "Longitude": 120.731452,
    "Tel": "04-25298991"
  },
  {
    "Name": "品品動物醫院",
    "Address": "台中市豐原區中山路157號",
    "Latitude": 24.2400294,
    "Longitude": 120.7115186,
    "Tel": "04-25256889"
  },
  {
    "Name": "豐原中山犬醫院",
    "Address": "台中市豐原區成功路85號",
    "Latitude": 24.2433444,
    "Longitude": 120.7109597,
    "Tel": "04-25250375"
  },
  {
    "Name": "豐東動物醫院",
    "Address": "台中市豐原區豐東路88號",
    "Latitude": 24.247223,
    "Longitude": 120.72978,
    "Tel": "04-25204390"
  },
  {
    "Name": "新生動物醫院",
    "Address": "台中市豐原區新生北路59號",
    "Latitude": 24.252888,
    "Longitude": 120.719197,
    "Tel": "04-25202509"
  },
  {
    "Name": "普羅旺斯動物醫院",
    "Address": "台中市豐原區圓環南路285號",
    "Latitude": 24.2495167,
    "Longitude": 120.7091715,
    "Tel": "04-25287681"
  },
  {
    "Name": "中泰動物醫院",
    "Address": "台中市豐原區圓環南路117號",
    "Latitude": 24.246895,
    "Longitude": 120.710081,
    "Tel": "04-25244862"
  },
  {
    "Name": "南陽獸醫院",
    "Address": "台中市豐原區圓環東路299號",
    "Latitude": 24.2446117,
    "Longitude": 120.7230288,
    "Tel": "04-25223703"
  },
  {
    "Name": "福懋動物醫院",
    "Address": "台中市豐原區圓環西路69號",
    "Latitude": 24.25237,
    "Longitude": 120.708765,
    "Tel": "04-25220909"
  },
  {
    "Name": "全國動物醫院－豐原分院",
    "Address": "台中市豐原區圓環北路二段251號",
    "Latitude": 24.2603744,
    "Longitude": 120.7256153,
    "Tel": "04-25249607"
  },
  {
    "Name": "豐南動物醫院",
    "Address": "台中市豐原區育才街35號",
    "Latitude": 24.2468808,
    "Longitude": 120.7160506,
    "Tel": "04-25291991"
  },
  {
    "Name": "龍立動物醫院",
    "Address": "台中市豐原區西安街191號",
    "Latitude": 24.248646,
    "Longitude": 120.709781,
    "Tel": "04-25298296"
  },
  {
    "Name": "立安動物醫院",
    "Address": "台中市豐原區向陽路243號",
    "Latitude": 24.2517469,
    "Longitude": 120.727483,
    "Tel": "04-25237789"
  },
  {
    "Name": "中美獸醫院",
    "Address": "台中市豐原區三豐路167號",
    "Latitude": 24.2643311,
    "Longitude": 120.7202679,
    "Tel": "04-25272071"
  },
  {
    "Name": "安傑動物醫院",
    "Address": "台中市豐原區三豐路119號",
    "Latitude": 24.2643214,
    "Longitude": 120.7202668,
    "Tel": "04-25256438"
  },
  {
    "Name": "佑晟動物醫院",
    "Address": "台中市后里區福音路42-1號",
    "Latitude": 24.3054047,
    "Longitude": 120.7127354,
    "Tel": "04-2558-7587"
  },
  {
    "Name": "東勢動物醫院",
    "Address": "台中市東勢區中正路250號",
    "Latitude": 24.2534451,
    "Longitude": 120.8264743,
    "Tel": "04-25889119"
  },
  {
    "Name": "家安動物醫院",
    "Address": "台中市東勢區新豐街34號",
    "Latitude": 24.2626008,
    "Longitude": 120.8249054,
    "Tel": "04-25770889"
  },
  {
    "Name": "名鼎動物醫院",
    "Address": "台中市潭子區潭興路3段95號",
    "Latitude": 24.2115269,
    "Longitude": 120.7023154,
    "Tel": "04-25323270"
  },
  {
    "Name": "豐源動物醫院",
    "Address": "台中市潭子區頭家里中山路一段172號",
    "Latitude": 24.1951716,
    "Longitude": 120.7024455,
    "Tel": "04-25358448"
  },
  {
    "Name": "葆生動物醫院",
    "Address": "台中市潭子區圓通南路268號",
    "Latitude": 24.2072298,
    "Longitude": 120.7027703,
    "Tel": "04-25340683"
  },
  {
    "Name": "潭子動物醫院",
    "Address": "台中市潭子區中山路二段305號",
    "Latitude": 24.2113044,
    "Longitude": 120.7052017,
    "Tel": "04-25319197"
  },
  {
    "Name": "聖安動物醫院",
    "Address": "台中市潭子區中山路1段17-5號",
    "Latitude": 24.1899274,
    "Longitude": 120.7021964,
    "Tel": "04-25350238"
  },
  {
    "Name": "文清動物醫院",
    "Address": "台中市大雅區民生路一段290號",
    "Latitude": 24.2283445,
    "Longitude": 120.6526189,
    "Tel": "04-2565-2370"
  },
  {
    "Name": "大雅動物醫院",
    "Address": "台中市大雅區中清南路81號",
    "Latitude": 24.2208158,
    "Longitude": 120.6473016,
    "Tel": "04-2560-8583"
  },
  {
    "Name": "揚名動物醫院",
    "Address": "台中市神岡區神岡路45號",
    "Latitude": 24.2575769,
    "Longitude": 120.6612167,
    "Tel": "04-25623247"
  },
  {
    "Name": "關心動物醫院",
    "Address": "台中市神岡區三民路97號",
    "Latitude": 24.253428,
    "Longitude": 120.719711,
    "Tel": "04-26653624"
  },
  {
    "Name": "沙鹿動物醫院",
    "Address": "台中市沙鹿區成功東街92-1號",
    "Latitude": 24.24182,
    "Longitude": 120.563851,
    "Tel": "04-26634073"
  },
  {
    "Name": "洽昌動物醫院",
    "Address": "台中市沙鹿區中山路463巷1號",
    "Latitude": 24.2369866,
    "Longitude": 120.5653884,
    "Tel": "04-"
  },
  {
    "Name": "安生動物醫院",
    "Address": "台中市太平區新興路219號",
    "Latitude": 24.159334,
    "Longitude": 120.705847,
    "Tel": "04-23607399"
  },
  {
    "Name": "沙鹿名犬動物醫院",
    "Address": "台中市沙鹿區鎮南路二段446號",
    "Latitude": 24.230938,
    "Longitude": 120.566404,
    "Tel": "04-26324343"
  },
  {
    "Name": "中山動物醫院",
    "Address": "台中市沙鹿區中棲路336號",
    "Latitude": 24.2408107,
    "Longitude": 120.5619934,
    "Tel": "04-26622403"
  },
  {
    "Name": "星光動物醫院",
    "Address": "台中市龍井區遊園南路277號",
    "Latitude": 24.1805481,
    "Longitude": 120.5835538,
    "Tel": "04-26520185"
  },
  {
    "Name": "三三動物診所",
    "Address": "台中市梧棲區光復路28號",
    "Latitude": 24.2467403,
    "Longitude": 120.5483374,
    "Tel": "04-26656115"
  },
  {
    "Name": "宏仁動物醫院",
    "Address": "台中市清水區中華路442巷7號",
    "Latitude": 24.2733502,
    "Longitude": 120.5696487,
    "Tel": "04-26221278"
  },
  {
    "Name": "中華動物醫院-清水分院",
    "Address": "台中市清水區中山路503號",
    "Latitude": 24.2763655,
    "Longitude": 120.5775216,
    "Tel": "04-26226696"
  },
  {
    "Name": "狗脾氣動物醫院",
    "Address": "台中市清水區五權東路11號",
    "Latitude": 24.2756325,
    "Longitude": 120.576618,
    "Tel": "04-26225317"
  },
  {
    "Name": "漂亮寶貝動物醫院",
    "Address": "台中市清水區中山路127-3號",
    "Latitude": 24.2644954,
    "Longitude": 120.5733062,
    "Tel": "04-26238800"
  },
  {
    "Name": "人愛動物醫院",
    "Address": "台中市清水區中山路四段223號",
    "Latitude": 24.2465481,
    "Longitude": 120.6850262,
    "Tel": "04-2395-7656"
  },
  {
    "Name": "中心動物醫院",
    "Address": "台中市清水區中山路三段68號",
    "Latitude": 24.2161821,
    "Longitude": 120.6492099,
    "Tel": "04-2391-9547"
  },
  {
    "Name": "聖愛動物醫院-大甲分院",
    "Address": "台中市大甲區光明路124號",
    "Latitude": 24.3442301,
    "Longitude": 120.622556,
    "Tel": "04-26886136"
  },
  {
    "Name": "協和動物醫院",
    "Address": "台中市大甲區中山路1段825之6號",
    "Latitude": 24.3424868,
    "Longitude": 120.622275,
    "Tel": "04-26880633"
  },
  {
    "Name": "建安動物醫院",
    "Address": "台中市大甲區鎮政路58之7號",
    "Latitude": 24.3471508,
    "Longitude": 120.626056,
    "Tel": "04-2688-6999"
  },
  {
    "Name": "中華動物醫院",
    "Address": "台中市大甲區新政路2號之2",
    "Latitude": 24.347774,
    "Longitude": 120.627478,
    "Tel": "04-2687-4024"
  },
  {
    "Name": "安澤動物醫院",
    "Address": "台中市大甲區光明路281巷32號",
    "Latitude": 24.3435958,
    "Longitude": 120.6205919,
    "Tel": "04-2686-1992"
  }
]