[
  {
    "Name": "杰禾動物醫院",
    "Address": "台南市東區仁和路133-3號",
    "Latitude": 22.9696802,
    "Longitude": 120.2347649,
    "Tel": "06-2909119"
  },
  {
    "Name": "力晨動物醫院",
    "Address": "台南市東區東光路二段78號",
    "Latitude": 22.9970991,
    "Longitude": 120.231736,
    "Tel": "06-2758830"
  },
  {
    "Name": "一心動物醫院",
    "Address": "台南市東區東門路二段227號",
    "Latitude": 22.9843358,
    "Longitude": 120.225034,
    "Tel": "06-2376817"
  },
  {
    "Name": "良和犬畜綜合醫院",
    "Address": "台南市東區東門路一段96號",
    "Latitude": 22.9880962,
    "Longitude": 120.2136504,
    "Tel": "06-2753688"
  },
  {
    "Name": "中美獸醫院府連院",
    "Address": "台南市東區府連路314號",
    "Latitude": 22.984961,
    "Longitude": 120.2153082,
    "Tel": "06-2379123"
  },
  {
    "Name": "喬巴動物醫院",
    "Address": "台南市東區中華東路三段156號",
    "Latitude": 22.9782071,
    "Longitude": 120.226628,
    "Tel": "06-2895300"
  },
  {
    "Name": "動物之家獸醫院",
    "Address": "台南市東區小東路248-8號",
    "Latitude": 22.999069,
    "Longitude": 120.229809,
    "Tel": "06-2092209"
  },
  {
    "Name": "上群動物醫院",
    "Address": "台南市東區東寧路318號",
    "Latitude": 22.9901241,
    "Longitude": 120.2271942,
    "Tel": "06-2746648"
  },
  {
    "Name": "吉泰犬病院",
    "Address": "台南市東區裕農路308號",
    "Latitude": 22.986607,
    "Longitude": 120.2288472,
    "Tel": "06-2387779"
  },
  {
    "Name": "陽明動物醫院",
    "Address": "台南市東區崇學路198號",
    "Latitude": 22.9820995,
    "Longitude": 120.2256371,
    "Tel": "06-2682885"
  },
  {
    "Name": "人愛動物醫院",
    "Address": "台南市東區崇學路155號",
    "Latitude": 22.979971,
    "Longitude": 120.2231526,
    "Tel": "06-2609397"
  },
  {
    "Name": "華生動物醫院",
    "Address": "台南市東區崇德路528號",
    "Latitude": 22.972994,
    "Longitude": 120.227393,
    "Tel": "06-2697779"
  },
  {
    "Name": "崇愛動物醫院",
    "Address": "台南市東區崇明路463號",
    "Latitude": 22.9731036,
    "Longitude": 120.2247808,
    "Tel": "06-2604733"
  },
  {
    "Name": "佳愛動物醫院",
    "Address": "台南市東區崇明路167號",
    "Latitude": 22.978964,
    "Longitude": 120.219316,
    "Tel": "06-2607358"
  },
  {
    "Name": "宏愛動物醫院",
    "Address": "台南市東區東寧路331號",
    "Latitude": 22.9902605,
    "Longitude": 120.2276663,
    "Tel": "06-2385816"
  },
  {
    "Name": "愛欣動物醫院",
    "Address": "台南市東區東門路三段3-1號",
    "Latitude": 22.981127,
    "Longitude": 120.229894,
    "Tel": "06-2678285"
  },
  {
    "Name": "恩怡動物醫院",
    "Address": "台南市東區東門路二段242號",
    "Latitude": 22.9845335,
    "Longitude": 120.2244997,
    "Tel": "06-2676655"
  },
  {
    "Name": "立奇動物醫院",
    "Address": "台南市東區東和路34號",
    "Latitude": 22.9987121,
    "Longitude": 120.2293014,
    "Tel": "06-2005797"
  },
  {
    "Name": "信宏動物醫院",
    "Address": "台南市東區中華東路一段203號",
    "Latitude": 22.9902411,
    "Longitude": 120.2340108,
    "Tel": "06-2358879"
  },
  {
    "Name": "紅琍動物醫院",
    "Address": "台南市東區府連路190-1號",
    "Latitude": 22.9850441,
    "Longitude": 120.212547,
    "Tel": "06-2132702"
  },
  {
    "Name": "郭家畜醫院",
    "Address": "台南市南區明興路114號",
    "Latitude": 22.9590302,
    "Longitude": 120.1869769,
    "Tel": "06-263-8732"
  },
  {
    "Name": "凱麗獸醫院",
    "Address": "台南市南區健康路1段345號",
    "Latitude": 22.9812982,
    "Longitude": 120.2017431,
    "Tel": "06-291-2977"
  },
  {
    "Name": "弘光動物醫院",
    "Address": "台南市南區金華路一段192號",
    "Latitude": 22.9660232,
    "Longitude": 120.190105,
    "Tel": "06-2618477"
  },
  {
    "Name": "南光動物醫院",
    "Address": "台南市南區中華南路一段122號",
    "Latitude": 22.9712888,
    "Longitude": 120.2121919,
    "Tel": "06-2153088"
  },
  {
    "Name": "新生動物醫院",
    "Address": "台南市南區國華街一段126號",
    "Latitude": 22.9867775,
    "Longitude": 120.1964174,
    "Tel": "06-2266031"
  },
  {
    "Name": "宏麟動物醫院",
    "Address": "台南市南區美南街20號",
    "Latitude": 22.9873034,
    "Longitude": 120.1910565,
    "Tel": "06-2911809"
  },
  {
    "Name": "慈愛動物醫院－金華分院",
    "Address": "台南市南區金華路二段39巷3號",
    "Latitude": 22.9772417,
    "Longitude": 120.1908744,
    "Tel": "06-2641220"
  },
  {
    "Name": "慈愛動物醫院－台南總院",
    "Address": "台南市南區西門路一段473號",
    "Latitude": 22.9821762,
    "Longitude": 120.1973727,
    "Tel": "06-2203166"
  },
  {
    "Name": "全國動物醫院－五期分院",
    "Address": "台南市南區中華西路一段310號",
    "Latitude": 22.9832467,
    "Longitude": 120.1864695,
    "Tel": "06-2655757"
  },
  {
    "Name": "東平動物醫院",
    "Address": "台南市南區大同路二段458號",
    "Latitude": 22.9735021,
    "Longitude": 120.214349,
    "Tel": "06-2156989"
  },
  {
    "Name": "台灣嘉南動物醫院",
    "Address": "台南市北區長榮路5段427號",
    "Latitude": 23.0132051,
    "Longitude": 120.212542,
    "Tel": "06-251-6949"
  },
  {
    "Name": "華林動物醫院",
    "Address": "台南市北區文賢路522號",
    "Latitude": 23.0071136,
    "Longitude": 120.1936948,
    "Tel": "06-259-7595"
  },
  {
    "Name": "遠東國際名犬",
    "Address": "台南市北區西門路4段495號",
    "Latitude": 23.0190695,
    "Longitude": 120.2127132,
    "Tel": "06-2811040"
  },
  {
    "Name": "愛犬之友寵物店",
    "Address": "台南市北區長榮路4段201號",
    "Latitude": 23.0070453,
    "Longitude": 120.2210236,
    "Tel": "06-2091919"
  },
  {
    "Name": "仁美動物醫院",
    "Address": "台南市北區北安路一段271號",
    "Latitude": 23.0193822,
    "Longitude": 120.2066169,
    "Tel": "06-2833377"
  },
  {
    "Name": "亞洲動物醫院",
    "Address": "台南市北區中華北路二段8號",
    "Latitude": 23.02151,
    "Longitude": 120.206658,
    "Tel": "06-2505323"
  },
  {
    "Name": "查里司動物醫院",
    "Address": "台南市北區長榮路5段19號",
    "Latitude": 23.0092491,
    "Longitude": 120.2206559,
    "Tel": "06-209-0505"
  },
  {
    "Name": "旺旺動物醫院",
    "Address": "台南市北區中華北路2段15號",
    "Latitude": 23.0182543,
    "Longitude": 120.1938813,
    "Tel": "06-259-4109"
  },
  {
    "Name": "成功動物醫院",
    "Address": "台南市北區長榮路四段223號",
    "Latitude": 23.0072644,
    "Longitude": 120.2208468,
    "Tel": "06-2341325"
  },
  {
    "Name": "大愛動物醫院",
    "Address": "台南市北區和緯路2段516號",
    "Latitude": 23.0119926,
    "Longitude": 120.2012718,
    "Tel": "06-2831699"
  },
  {
    "Name": "惠群動物醫院",
    "Address": "台南市北區文成路745號",
    "Latitude": 23.012333,
    "Longitude": 120.1960452,
    "Tel": "06-3587057"
  },
  {
    "Name": "凱旋動物醫院",
    "Address": "台南市北區公園路595-17號",
    "Latitude": 23.0138075,
    "Longitude": 120.2121825,
    "Tel": "06-2514727"
  },
  {
    "Name": "建成獸醫院",
    "Address": "台南市北區公園路535號",
    "Latitude": 23.0098477,
    "Longitude": 120.2104197,
    "Tel": "06-2514711"
  },
  {
    "Name": "成功動物醫院",
    "Address": "台南市北區長榮路四段223號",
    "Latitude": 23.0072644,
    "Longitude": 120.2208468,
    "Tel": "06-2342855"
  },
  {
    "Name": "啄木鳥動物醫院",
    "Address": "台南市北區臨安路二段243號",
    "Latitude": 23.0043107,
    "Longitude": 120.2007182,
    "Tel": "06-350-5902"
  },
  {
    "Name": "勝立動物醫院",
    "Address": "台南市北區勝利路391號",
    "Latitude": 23.0041716,
    "Longitude": 120.2186788,
    "Tel": "06-2361873"
  },
  {
    "Name": "中美獸醫院和緯院",
    "Address": "台南市北區和緯路二段231號",
    "Latitude": 23.0122887,
    "Longitude": 120.2050922,
    "Tel": "06-2812233"
  },
  {
    "Name": "慈愛動物醫院－小北分院",
    "Address": "台南市北區西門路四段282號",
    "Latitude": 23.0124971,
    "Longitude": 120.2092469,
    "Tel": "06-2833213"
  },
  {
    "Name": "奇美動物醫院",
    "Address": "台南市北區北安路一段89號",
    "Latitude": 23.0159672,
    "Longitude": 120.2110568,
    "Tel": "06-282-5899"
  },
  {
    "Name": "豪斯動物醫院",
    "Address": "台南市北區文賢路1086號",
    "Latitude": 23.0152994,
    "Longitude": 120.1936298,
    "Tel": "06-3581999"
  },
  {
    "Name": "躍犬動物醫院",
    "Address": "台南市安平區民權路四段523號",
    "Latitude": 23.0000966,
    "Longitude": 120.172087,
    "Tel": "06-2264281"
  },
  {
    "Name": "民生動物醫院",
    "Address": "台南市安平區健康二街56號",
    "Latitude": 22.9852706,
    "Longitude": 120.1727286,
    "Tel": "06-2990992"
  },
  {
    "Name": "永佳動物醫院",
    "Address": "台南市安南區海佃路二段440號",
    "Latitude": 23.039047,
    "Longitude": 120.1881112,
    "Tel": "06 255 7717"
  },
  {
    "Name": "愛犬家動物醫院",
    "Address": "台南市安南區怡安路1段84號",
    "Latitude": 23.0407173,
    "Longitude": 120.2131959,
    "Tel": "06- 357 1792"
  },
  {
    "Name": "上愛犬舍",
    "Address": "台南市安南區安和路1段178號",
    "Latitude": 23.030065,
    "Longitude": 120.213546,
    "Tel": "09-31257217"
  },
  {
    "Name": "高生動物醫院",
    "Address": "台南市安南區安中路三段228號",
    "Latitude": 23.048255,
    "Longitude": 120.179323,
    "Tel": "06-256-7140"
  },
  {
    "Name": "博泰動物醫院",
    "Address": "台南市安南區德安街65號",
    "Latitude": 23.025706,
    "Longitude": 120.205579,
    "Tel": "06-2831981"
  },
  {
    "Name": "郡安動物醫院",
    "Address": "台南市安南區郡安路四段122號",
    "Latitude": 23.0281181,
    "Longitude": 120.208265,
    "Tel": "06-2834990"
  },
  {
    "Name": "慈愛動物醫院－海佃分院",
    "Address": "台南市安南區海佃路一段64-1號",
    "Latitude": 23.0244435,
    "Longitude": 120.193339,
    "Tel": "06-3584100"
  },
  {
    "Name": "安順動物醫院",
    "Address": "台南市安南區安和路四段374-5號",
    "Latitude": 23.0584602,
    "Longitude": 120.2188284,
    "Tel": "06-3552258"
  },
  {
    "Name": "菲菲寵物生活館",
    "Address": "台南市永康區中山路61號",
    "Latitude": 23.029355,
    "Longitude": 120.256014,
    "Tel": "06-2317728"
  },
  {
    "Name": "百利動物醫院",
    "Address": "台南市永康區崑山街183巷20號",
    "Latitude": 23.0045861,
    "Longitude": 120.258656,
    "Tel": "06-2730005"
  },
  {
    "Name": "怡安動物醫院",
    "Address": "台南市永康區中正北路27號",
    "Latitude": 23.041488,
    "Longitude": 120.2381625,
    "Tel": "06-2546815"
  },
  {
    "Name": "邦尼動物醫院",
    "Address": "台南市永康區永二街399號",
    "Latitude": 23.0196367,
    "Longitude": 120.2473271,
    "Tel": "06-2374839"
  },
  {
    "Name": "永康動物醫院",
    "Address": "台南市永康區中山南路389號",
    "Latitude": 23.021056,
    "Longitude": 120.24634,
    "Tel": "06-2312133"
  },
  {
    "Name": "永明動物醫院",
    "Address": "台南市永康區永明街65號",
    "Latitude": 23.0254133,
    "Longitude": 120.2601698,
    "Tel": "06-2028613"
  },
  {
    "Name": "聯心動物醫院",
    "Address": "台南市永康區中華路714號",
    "Latitude": 23.0164195,
    "Longitude": 120.2290637,
    "Tel": "06-3026658"
  },
  {
    "Name": "快樂動物醫院",
    "Address": "台南市永康區快樂動物醫院",
    "Latitude": 22.9986972,
    "Longitude": 120.2407921,
    "Tel": "06-3131300"
  },
  {
    "Name": "新長庚動物醫院",
    "Address": "台南市永康區忠孝路445號",
    "Latitude": 23.018897,
    "Longitude": 120.243422,
    "Tel": "06-2311753"
  },
  {
    "Name": "長弘動物醫院",
    "Address": "台南市永康區正強街139號",
    "Latitude": 23.0272895,
    "Longitude": 120.2518273,
    "Tel": "06-2323377"
  },
  {
    "Name": "馬汀動物醫院",
    "Address": "台南市永康區中華路8-2號",
    "Latitude": 22.9994841,
    "Longitude": 120.235043,
    "Tel": "06-3125594"
  },
  {
    "Name": "佳諾動物醫院",
    "Address": "台南市永康區中華路685號",
    "Latitude": 23.0161746,
    "Longitude": 120.2288295,
    "Tel": "06-2313399"
  },
  {
    "Name": "慈愛動物醫院－中華分院",
    "Address": "台南市永康區中華路591號",
    "Latitude": 23.0130686,
    "Longitude": 120.230837,
    "Tel": "06-2339650"
  },
  {
    "Name": "平安動物醫院",
    "Address": "台南市永康區中華路16號",
    "Latitude": 23.0002311,
    "Longitude": 120.235179,
    "Tel": "06-3130333"
  },
  {
    "Name": "全國動物醫院－永康分院",
    "Address": "台南市永康區中華路103號2樓",
    "Latitude": 23.0019781,
    "Longitude": 120.234592,
    "Tel": "06-3133116"
  },
  {
    "Name": "慈愛動物醫院－大灣分院",
    "Address": "台南市永康區大灣路770-2號",
    "Latitude": 23.0005161,
    "Longitude": 120.259738,
    "Tel": "06-2054702"
  },
  {
    "Name": "大灣動物醫院",
    "Address": "台南市永康區大灣路610號1樓",
    "Latitude": 23.0013943,
    "Longitude": 120.2642376,
    "Tel": "06-2732119"
  },
  {
    "Name": "祥泰動物醫院",
    "Address": "台南市永康區大灣路340號",
    "Latitude": 23.006185,
    "Longitude": 120.266878,
    "Tel": "06-2731858"
  },
  {
    "Name": "泰興動物醫院",
    "Address": "台南市歸仁區大順街101號",
    "Latitude": 22.9652024,
    "Longitude": 120.2895903,
    "Tel": "06-2397781"
  },
  {
    "Name": "大愛動物醫院",
    "Address": "台南市歸仁區中山路3段146號",
    "Latitude": 22.9679659,
    "Longitude": 120.2845213,
    "Tel": "06-3300599"
  },
  {
    "Name": "摩西動物醫院",
    "Address": "台南市新化區大新路15號",
    "Latitude": 23.0370923,
    "Longitude": 120.2996115,
    "Tel": "06-5989922"
  },
  {
    "Name": "李動物醫院",
    "Address": "台南市新化區中正路515號",
    "Latitude": 23.0373883,
    "Longitude": 120.3072199,
    "Tel": "06-5907808"
  },
  {
    "Name": "柯建章動物醫院",
    "Address": "台南市仁德區中正西路20號",
    "Latitude": 22.9183212,
    "Longitude": 120.2243612,
    "Tel": "06-2665169"
  },
  {
    "Name": "慈愛動物醫院－仁德分院",
    "Address": "台南市仁德區中山路701號",
    "Latitude": 22.9754833,
    "Longitude": 120.2382935,
    "Tel": "06-2792159"
  },
  {
    "Name": "佳和動物醫院",
    "Address": "台南市仁德區中山路172號",
    "Latitude": 22.9702042,
    "Longitude": 120.2635553,
    "Tel": "06-2706450"
  },
  {
    "Name": "麻豆動物醫院",
    "Address": "台南市麻豆區興國路16-10號",
    "Latitude": 23.182067,
    "Longitude": 120.247746,
    "Tel": "06-5717829"
  },
  {
    "Name": "河碧家畜診所",
    "Address": "台南市麻豆區興南路78號",
    "Latitude": 23.1829004,
    "Longitude": 120.2507613,
    "Tel": "06-5722241"
  },
  {
    "Name": "大群動物醫院",
    "Address": "台南市麻豆區文昌路17-5號",
    "Latitude": 23.1850699,
    "Longitude": 120.2523687,
    "Tel": "06-5712351"
  },
  {
    "Name": "愛心犬貓醫院",
    "Address": "台南市佳里區中和街75號",
    "Latitude": 23.1606017,
    "Longitude": 120.1756108,
    "Tel": "06-7232271"
  },
  {
    "Name": "長明動物醫院",
    "Address": "台南市佳里區文化路343號",
    "Latitude": 23.1630994,
    "Longitude": 120.1727524,
    "Tel": "06-7232873"
  },
  {
    "Name": "全能動物醫院",
    "Address": "台南市將軍區忠興里187-22號",
    "Latitude": 23.20358,
    "Longitude": 120.166554,
    "Tel": "06-7944117"
  },
  {
    "Name": "鼎瀚優犬園",
    "Address": "台南市學甲區宅港里德安寮36號",
    "Latitude": 23.249777,
    "Longitude": 120.190718,
    "Tel": "06-7823290"
  },
  {
    "Name": "康翔動物醫院",
    "Address": "台南市新營區中正路225號1樓",
    "Latitude": 23.319405,
    "Longitude": 120.3160969,
    "Tel": "06-6359911"
  },
  {
    "Name": "吉陽動物醫院",
    "Address": "台南市新營區新進路二段96號",
    "Latitude": 23.3006363,
    "Longitude": 120.3106509,
    "Tel": "06-6326707"
  },
  {
    "Name": "中興動物醫院",
    "Address": "台南市新營區新進路108號",
    "Latitude": 23.303298,
    "Longitude": 120.320335,
    "Tel": "06-6350471"
  },
  {
    "Name": "東京動物醫院",
    "Address": "台南市新營區進修街99號",
    "Latitude": 23.3068034,
    "Longitude": 120.3049954,
    "Tel": "06-6565160"
  },
  {
    "Name": "波菲爾動物醫院",
    "Address": "台南市新營區復興路156號",
    "Latitude": 23.3023409,
    "Longitude": 120.31251,
    "Tel": "06-6331525"
  },
  {
    "Name": "樂仁動物醫院",
    "Address": "台南市新營區民治路6-43號",
    "Latitude": 23.3112069,
    "Longitude": 120.321172,
    "Tel": "06-6325807"
  },
  {
    "Name": "寶成動物醫院",
    "Address": "台南市新營區三民路137-1號",
    "Latitude": 23.3047193,
    "Longitude": 120.3083976,
    "Tel": "06-6320525"
  },
  {
    "Name": "瑪利亞動物醫院",
    "Address": "台南市白河區中山路1之16號",
    "Latitude": 23.3470473,
    "Longitude": 120.4134336,
    "Tel": "06-6832376"
  },
  {
    "Name": "飛揚動物醫院",
    "Address": "台南市東山區東中里青葉路一段295號",
    "Latitude": 23.3189275,
    "Longitude": 120.4033449,
    "Tel": "06-6805113"
  },
  {
    "Name": "六甲家畜醫院",
    "Address": "台南市六甲區曾文街49-3號",
    "Latitude": 23.2331966,
    "Longitude": 120.3558981,
    "Tel": "06-6985843"
  },
  {
    "Name": "勝安動物醫院",
    "Address": "台南市六甲區復興街96號",
    "Latitude": 23.2305738,
    "Longitude": 120.352438,
    "Tel": "06-6982640"
  },
  {
    "Name": "健康動物醫院",
    "Address": "台南市善化區建國路31號",
    "Latitude": 23.1273439,
    "Longitude": 120.297246,
    "Tel": "06-5850066"
  },
  {
    "Name": "啟仁動物醫院",
    "Address": "台南市善化區大成路338號",
    "Latitude": 23.1298127,
    "Longitude": 120.2976517,
    "Tel": "06-5832313"
  },
  {
    "Name": "茂生家畜診所",
    "Address": "台南市新市區中正路309號",
    "Latitude": 23.0793276,
    "Longitude": 120.2934876,
    "Tel": "06-5995000"
  },
  {
    "Name": "奇異果動物醫院",
    "Address": "台南市中西區臨安路1段222號",
    "Latitude": 23.0015727,
    "Longitude": 120.1938836,
    "Tel": "06-2208688"
  },
  {
    "Name": "美自愛犬整容屋",
    "Address": "台南市中西區友愛街52號",
    "Latitude": 22.9913147,
    "Longitude": 120.2009396,
    "Tel": "06-2284826"
  },
  {
    "Name": "嘉陞動物醫院",
    "Address": "台南市中西區永華路100號",
    "Latitude": 22.987852,
    "Longitude": 120.194259,
    "Tel": "06-224-0867"
  },
  {
    "Name": "詹姆斯動物醫院",
    "Address": "台南市中西區南門路179號之4",
    "Latitude": 22.9860628,
    "Longitude": 120.2043683,
    "Tel": "06-2157057"
  },
  {
    "Name": "立安動物醫院",
    "Address": "台南市中西區永華路186號",
    "Latitude": 22.9883641,
    "Longitude": 120.191848,
    "Tel": "06-2286538"
  },
  {
    "Name": "廣慈動物醫院",
    "Address": "台南市中西區府前路二段199號",
    "Latitude": 22.9915396,
    "Longitude": 120.1922125,
    "Tel": "06-2288126"
  },
  {
    "Name": "慶華動物醫院",
    "Address": "台南市中西區金華路四段6號",
    "Latitude": 22.996441,
    "Longitude": 120.194144,
    "Tel": "06-2230440"
  },
  {
    "Name": "瑞慶動物醫院",
    "Address": "台南市中西區府連路31號",
    "Latitude": 22.9822048,
    "Longitude": 120.2095348,
    "Tel": "06-2146651"
  },
  {
    "Name": "亞太動物醫院",
    "Address": "台南市中西區府前路一段361號",
    "Latitude": 22.989976,
    "Longitude": 120.199143,
    "Tel": "06-2145884"
  },
  {
    "Name": "嘉獸家畜醫院",
    "Address": "台南市中西區府前路一段168號",
    "Latitude": 22.9892141,
    "Longitude": 120.2067822,
    "Tel": "06-2286565"
  },
  {
    "Name": "強生動物醫院",
    "Address": "台南市中西區成功路357號",
    "Latitude": 23.0003204,
    "Longitude": 120.1990882,
    "Tel": "06-2289551"
  },
  {
    "Name": "諾亞動物醫院",
    "Address": "台南市中西區成功路297號",
    "Latitude": 22.999552,
    "Longitude": 120.2012339,
    "Tel": "06-2217291"
  },
  {
    "Name": "府城動物醫院",
    "Address": "台南市中西區成功路291號",
    "Latitude": 22.9995435,
    "Longitude": 120.2014634,
    "Tel": "06-2215138"
  },
  {
    "Name": "上揚動物醫院",
    "Address": "台南市中西區民族路三段48號",
    "Latitude": 22.998168,
    "Longitude": 120.198609,
    "Tel": "06-2247536"
  },
  {
    "Name": "友愛動物醫院",
    "Address": "台南市中西區友愛街277號",
    "Latitude": 22.9920591,
    "Longitude": 120.1960785,
    "Tel": "06-2222510"
  }
]