[
 {
   "Name":"瀚生動物醫院",
   "Address":"台北市中正區新生南路1段144-1號1樓",
   "Latitude":25.0356886,
   "Longitude":121.5324867,
   "Tel":"02-23581765"
 },
 {
   "Name":"博愛動物醫院",
   "Address":"台北市中正區杭州南路2段92號1樓",
   "Latitude":25.0293092,
   "Longitude":121.5218245,
   "Tel":"(02)3393-8850"
 },
 {
   "Name":"古亭動物醫院",
   "Address":"台北市中正區羅斯福路2段138號1樓",
   "Latitude":25.025853,
   "Longitude":121.522903,
   "Tel":"(02)2369-3373"
 },
 {
   "Name":"台灣動物醫院",
   "Address":"台北市中正區忠孝東路2段74號1樓",
   "Latitude":25.0431619,
   "Longitude":121.528862,
   "Tel":"(02)2341-2128"
 },
 {
   "Name":"中正犬貓醫院",
   "Address":"台北市中正區重慶南路3段60~4號2樓",
   "Latitude":25.0267311,
   "Longitude":121.5158551,
   "Tel":"(02)2305-4880"
 },
 {
   "Name":"佑昇動物醫院",
   "Address":"台北市中正區羅斯福路三段38號1樓",
   "Latitude":25.0230623,
   "Longitude":121.5252209,
   "Tel":"(02)2365-6729"
 },
 {
   "Name":"恩旺動物醫院",
   "Address":"台北市中正區羅斯福路二段7-4號1樓",
   "Latitude":25.0291239,
   "Longitude":121.52126,
   "Tel":"(02)2394-7349"
 },
 {
   "Name":"恩孺動物診所",
   "Address":"台北市中正區金山南路一段92號1樓",
   "Latitude":25.0360788,
   "Longitude":121.5274415,
   "Tel":"(02)2394-2821"
 },
 {
   "Name":"漢民動物醫院",
   "Address":"台北市中正區和平西路一段156號1樓",
   "Latitude":25.0274102,
   "Longitude":121.5151477,
   "Tel":"(02)2307-4801"
 },
 {
   "Name":"寶寶新動物醫院",
   "Address":"台北市中正區汀州路二段125號1樓",
   "Latitude":25.0250985,
   "Longitude":121.519424,
   "Tel":"(02)2367-7624"
 },
 {
   "Name":"全國動物醫院－公館分院",
   "Address":"台北市中正區羅斯福路3段316巷9弄1號1樓",
   "Latitude":25.015572,
   "Longitude":121.531843,
   "Tel":"(02)2365-8196"
 },
 {
   "Name":"康廷動物醫院",
   "Address":"台北市中正區寧波西街88號1樓",
   "Latitude":25.0298029,
   "Longitude":121.5157334,
   "Tel":"(02)2392-8187"
 },
 {
   "Name":"來旺動物醫院",
   "Address":"台北市中正區重慶南路三段50號1樓",
   "Latitude":25.0279549,
   "Longitude":121.515607,
   "Tel":"(02)2305-1120"
 },
 {
   "Name":"金旺動物醫院",
   "Address":"台北市中正區青島東路33-2號1樓",
   "Latitude":25.0432577,
   "Longitude":121.5250497,
   "Tel":"(02)2321-2580"
 },
 {
   "Name":"皇家動物醫院",
   "Address":"台北市大同區民族西路228號",
   "Latitude":25.0685041,
   "Longitude":121.5129064,
   "Tel":"(02)2596-0967"
 },
 {
   "Name":"正安動物醫院",
   "Address":"台北市大同區民權西路240號",
   "Latitude":25.0627733,
   "Longitude":121.5128222,
   "Tel":"(02)2557-1757"
 },
 {
   "Name":"慈愛動物醫院-寧夏分院",
   "Address":"台北市大同區寧夏路1號1樓、3樓",
   "Latitude":25.0543025,
   "Longitude":121.5149114,
   "Tel":"02-25563320"
 },
 {
   "Name":"凡賽爾賽鴿寵物鳥醫院",
   "Address":"台北市大同區民族西路53號1樓",
   "Latitude":25.0686729,
   "Longitude":121.519024,
   "Tel":"(02)2586-9933"
 },
 {
   "Name":"湖光動物醫院",
   "Address":"台北市大同區重慶北路3段138號",
   "Latitude":25.0677446,
   "Longitude":121.5135071,
   "Tel":"(02)2585-8860"
 },
 {
   "Name":"傑翔動物醫院",
   "Address":"台北市大同區民權西路270之2號1樓",
   "Latitude":25.062668,
   "Longitude":121.511968,
   "Tel":"(02)2557-3343"
 },
 {
   "Name":"大眾家畜醫院",
   "Address":"台北市大同區重慶北路三段51號1樓",
   "Latitude":25.0657329,
   "Longitude":121.5139171,
   "Tel":"(02)2586-1518"
 },
 {
   "Name":"晨光動物醫院",
   "Address":"台北市大同區重慶北路二段47號1樓",
   "Latitude":25.0552489,
   "Longitude":121.5143462,
   "Tel":"(02)2558-3347"
 },
 {
   "Name":"弘愛犬貓專科醫院",
   "Address":"台北市大同區民生西路105號1樓",
   "Latitude":25.0576208,
   "Longitude":121.5189594,
   "Tel":"(02)2550-3892"
 },
 {
   "Name":"慈愛動物醫院－寧夏分院",
   "Address":"台北市大同區寧夏路1號1樓、3樓",
   "Latitude":25.0543025,
   "Longitude":121.5149114,
   "Tel":"(02)2556-3320"
 },
 {
   "Name":"永新動物醫院",
   "Address":"台北市大同區重慶北路3段185號1樓",
   "Latitude":25.069284,
   "Longitude":121.513997,
   "Tel":"(02)2598-2889"
 },
 {
   "Name":"長沁動物醫院",
   "Address":"台北市大同區重慶北路3段17號",
   "Latitude":25.0645778,
   "Longitude":121.5139538,
   "Tel":"(02)2599-2119"
 },
 {
   "Name":"成功犬貓綜合醫院",
   "Address":"台北市大同區承德路二段154號1樓",
   "Latitude":25.0599976,
   "Longitude":121.5178595,
   "Tel":"(02)2553-8001"
 },
 {
   "Name":"全民連鎖動物醫院-民生總院",
   "Address":"台北市大同區民生西路247．249號1樓",
   "Latitude":25.057185,
   "Longitude":121.514809,
   "Tel":"(02)2553-0371"
 },
 {
   "Name":"長宏動物醫院",
   "Address":"台北市中山區吉林路173號1樓",
   "Latitude":25.059322,
   "Longitude":121.530332,
   "Tel":"(02)2567-8939"
 },
 {
   "Name":"伊甸動物醫院",
   "Address":"台北市中山區北安路554巷33號一樓",
   "Latitude":25.080187,
   "Longitude":121.549568,
   "Tel":"02-85092579"
 },
 {
   "Name":"黃動物醫院",
   "Address":"台北市中山區民權東路一段46號",
   "Latitude":25.0625244,
   "Longitude":121.5242334,
   "Tel":"02-25624249"
 },
 {
   "Name":"梁動物內科醫院",
   "Address":"台北市中山區長安東路1段41~1號1樓",
   "Latitude":25.049157,
   "Longitude":121.525421,
   "Tel":"(02)2396-9750"
 },
 {
   "Name":"興安動物醫院",
   "Address":"台北市中山區興安街89號1樓",
   "Latitude":25.056218,
   "Longitude":121.543126,
   "Tel":"(02)2504-8179"
 },
 {
   "Name":"黃動物醫院",
   "Address":"台北市中山區復興北路506號1樓",
   "Latitude":25.0656979,
   "Longitude":121.544117,
   "Tel":"(02)2504-5960"
 },
 {
   "Name":"成功動物醫院",
   "Address":"台北市中山區天祥路3號1樓",
   "Latitude":25.0606479,
   "Longitude":121.5211433,
   "Tel":"(02)2521-8001"
 },
 {
   "Name":"大地動物醫院",
   "Address":"台北市中山區長安東路2段12號1樓",
   "Latitude":25.0484195,
   "Longitude":121.5305191,
   "Tel":"(02)2581-7881"
 },
 {
   "Name":"小小貓咪動物醫院",
   "Address":"台北市中山區北安路458巷47弄10號1樓",
   "Latitude":25.078242,
   "Longitude":121.545434,
   "Tel":"(02)2533-7529"
 },
 {
   "Name":"仁慈動物醫院",
   "Address":"台北市中山區北安路571~2號1樓",
   "Latitude":25.081074,
   "Longitude":121.548347,
   "Tel":"(02)2533-6983"
 },
 {
   "Name":"惟新動物醫院",
   "Address":"台北市中山區明水路672巷34號1樓",
   "Latitude":25.0834824,
   "Longitude":121.5516598,
   "Tel":"(02)8502-3725"
 },
 {
   "Name":"美加璦動物醫院",
   "Address":"台北市中山區龍江路443巷1之2號1樓",
   "Latitude":25.0673231,
   "Longitude":121.5414361,
   "Tel":"(02)2505-4989"
 },
 {
   "Name":"弘安動物醫院",
   "Address":"台北市中山區五常街69號1樓",
   "Latitude":25.06444,
   "Longitude":121.540149,
   "Tel":"(02)2504-5630"
 },
 {
   "Name":"恩典動物醫院",
   "Address":"台北市中山區民生東路2段45號1樓及2樓",
   "Latitude":25.0581403,
   "Longitude":121.5292451,
   "Tel":"(02)2531-4545"
 },
 {
   "Name":"101台北貓醫院",
   "Address":"台北市中山區建國北路三段101號1樓",
   "Latitude":25.0661069,
   "Longitude":121.536392,
   "Tel":"(02)2509-1101"
 },
 {
   "Name":"廣銘獸醫院",
   "Address":"台北市中山區民生東路二段108號1樓",
   "Latitude":25.057823,
   "Longitude":121.5311427,
   "Tel":"(02)2563-9515"
 },
 {
   "Name":"紀劃動物醫院",
   "Address":"台北市中山區民生東路一段83號1樓",
   "Latitude":25.058292,
   "Longitude":121.527107,
   "Tel":"(02)2521-2205"
 },
 {
   "Name":"太僕動物醫院",
   "Address":"台北市中山區龍江路260號1樓",
   "Latitude":25.0600189,
   "Longitude":121.540509,
   "Tel":"(02)2517-0902"
 },
 {
   "Name":"龍江動物醫院",
   "Address":"台北市中山區龍江路21巷1號1樓",
   "Latitude":25.0478241,
   "Longitude":121.5406585,
   "Tel":"(02)2772-2223"
 },
 {
   "Name":"廣慈動物醫院",
   "Address":"台北市中山區錦州街371號1樓",
   "Latitude":25.060443,
   "Longitude":121.540387,
   "Tel":"(02)2504-4236"
 },
 {
   "Name":"大晶動物醫院",
   "Address":"台北市中山區農安街72號1樓",
   "Latitude":25.0647042,
   "Longitude":121.5289273,
   "Tel":"(02)2597-0625"
 },
 {
   "Name":"諾亞動物醫院",
   "Address":"台北市中山區吉林路166號1樓",
   "Latitude":25.0567441,
   "Longitude":121.5299932,
   "Tel":"(02)2564-2121"
 },
 {
   "Name":"東宏動物醫院",
   "Address":"台北市中山區吉林路432號1樓",
   "Latitude":25.0662695,
   "Longitude":121.5302228,
   "Tel":"(02)2595-7366"
 },
 {
   "Name":"吉林動物醫院",
   "Address":"台北市中山區吉林路121-1號1樓",
   "Latitude":25.0570157,
   "Longitude":121.5303219,
   "Tel":"(02)2564-2010"
 },
 {
   "Name":"米亞動物醫院",
   "Address":"台北市中山區民權東路二段57號1樓",
   "Latitude":25.0627416,
   "Longitude":121.5308772,
   "Tel":"(02)2592-3556"
 },
 {
   "Name":"和的獸醫院",
   "Address":"台北市中山區民權東路二段152巷22弄2號A室",
   "Latitude":25.0606917,
   "Longitude":121.5356881,
   "Tel":"(02)2508-1009"
 },
 {
   "Name":"復生動物醫院",
   "Address":"台北市中山區民生東路一段78號1樓",
   "Latitude":25.0579533,
   "Longitude":121.5266995,
   "Tel":"(02)2564-3940"
 },
 {
   "Name":"北安動物醫院",
   "Address":"台北市中山區北安路642號1樓",
   "Latitude":25.08325,
   "Longitude":121.549285,
   "Tel":"(02)2533-5990"
 },
 {
   "Name":"大直動物醫院",
   "Address":"台北市中山區北安路468號",
   "Latitude":25.0795824,
   "Longitude":121.5448441,
   "Tel":"(02)8509-6306"
 },
 {
   "Name":"曼哈頓動物醫院",
   "Address":"台北市松山區市民大道4段77號",
   "Latitude":25.0452561,
   "Longitude":121.5471032,
   "Tel":"02-27815231"
 },
 {
   "Name":"嘉慶動物醫院",
   "Address":"台北市松山區八德路4段218號1樓",
   "Latitude":25.0487204,
   "Longitude":121.5646871,
   "Tel":"02-8787-9121"
 },
 {
   "Name":"復興獸醫院",
   "Address":"台北市松山區復興南路1段13號1樓",
   "Latitude":25.0469269,
   "Longitude":121.544156,
   "Tel":"(02)2771-1414"
 },
 {
   "Name":"貝恩動物醫院",
   "Address":"台北市松山區南京東路3段256巷55號1樓",
   "Latitude":25.0491112,
   "Longitude":121.5446159,
   "Tel":"(02)-2740-7366"
 },
 {
   "Name":"人人愛動物醫院",
   "Address":"台北市松山區延吉街46之3號1樓",
   "Latitude":25.0451829,
   "Longitude":121.55366,
   "Tel":"(02)2577-8182"
 },
 {
   "Name":"日健動物醫院",
   "Address":"台北市松山區光復北路6~2號1樓",
   "Latitude":25.0485918,
   "Longitude":121.5572092,
   "Tel":"(02)2570-7508"
 },
 {
   "Name":"恩亞動物醫院",
   "Address":"台北市松山區健康路325巷14號1Ｆ",
   "Latitude":25.0556778,
   "Longitude":121.5672144,
   "Tel":"(02)2767-8889"
 },
 {
   "Name":"台欣動物醫院",
   "Address":"台北市松山區健康路187號1樓",
   "Latitude":25.0543309,
   "Longitude":121.561667,
   "Tel":"(02)2528-5119"
 },
 {
   "Name":"仁心動物醫院",
   "Address":"台北市松山區健康路256號1樓",
   "Latitude":25.0538761,
   "Longitude":121.5627116,
   "Tel":"(02)2768-1768"
 },
 {
   "Name":"新亞動物醫院",
   "Address":"台北市松山區延壽街390號1樓",
   "Latitude":25.0562564,
   "Longitude":121.5577112,
   "Tel":"(02)2745-7119"
 },
 {
   "Name":"豐盛動物醫院",
   "Address":"台北市松山區光復北路46號1樓",
   "Latitude":25.0496328,
   "Longitude":121.557655,
   "Tel":"(02)2578-5605"
 },
 {
   "Name":"台北動物醫院",
   "Address":"台北市松山區光復北路164號1樓",
   "Latitude":25.0529927,
   "Longitude":121.5566727,
   "Tel":"(02)2717-6036"
 },
 {
   "Name":"良醫動物醫院",
   "Address":"台北市松山區八德路四段188號1樓",
   "Latitude":25.048499,
   "Longitude":121.563694,
   "Tel":"(02)2761-5091"
 },
 {
   "Name":"龍貓動物醫院",
   "Address":"台北市松山區八德路3段203號1、2樓",
   "Latitude":25.0481261,
   "Longitude":121.5563655,
   "Tel":"(02)2577-6589"
 },
 {
   "Name":"國泰動物醫院",
   "Address":"台北市松山區延吉街57號1樓",
   "Latitude":25.0449721,
   "Longitude":121.5538535,
   "Tel":"(02)2579-5722"
 },
 {
   "Name":"人人愛動物醫院",
   "Address":"台北市松山區延吉街46-3號1樓",
   "Latitude":25.0451829,
   "Longitude":121.55366,
   "Tel":"(02)2577-8182"
 },
 {
   "Name":"中山動物醫院",
   "Address":"台北市松山區民權東路3段140巷5號1樓及106巷3弄8號1樓",
   "Latitude":25.0541591,
   "Longitude":121.5638621,
   "Tel":"(02)2719-6996"
 },
 {
   "Name":"隆記動物醫院",
   "Address":"台北市松山區民生東路五段63號1樓",
   "Latitude":25.058632,
   "Longitude":121.558036,
   "Tel":"(02)2760-7639"
 },
 {
   "Name":"美國愛屋動物醫院",
   "Address":"台北市松山區八德路四段520號1樓",
   "Latitude":25.04976,
   "Longitude":121.5711099,
   "Tel":"(02)2745-7379"
 },
 {
   "Name":"泰山動物醫院",
   "Address":"台北市松山區光復南路52號1樓",
   "Latitude":25.0458398,
   "Longitude":121.5575101,
   "Tel":"(02)2579-2650"
 },
 {
   "Name":"三民動物醫院",
   "Address":"台北市松山區三民路101巷1號",
   "Latitude":25.0573628,
   "Longitude":121.5633422,
   "Tel":"(02)2753-4954"
 },
 {
   "Name":"全陽犬貓專科醫院",
   "Address":"台北市松山區八德路四段305號1樓",
   "Latitude":25.0492335,
   "Longitude":121.5666323,
   "Tel":"(02)2762-7945"
 },
 {
   "Name":"祐仁動物醫院",
   "Address":"台北市大安區和平東路1段200號1樓",
   "Latitude":25.026163,
   "Longitude":121.53126,
   "Tel":"02-2363-5377"
 },
 {
   "Name":"育生動物醫院",
   "Address":"台北市大安區忠孝東路3段233-1號1樓",
   "Latitude":25.0418907,
   "Longitude":121.5405642,
   "Tel":"02-2776-1886"
 },
 {
   "Name":"王樣動物醫院",
   "Address":"台北市大安區金華街217號1樓",
   "Latitude":25.029917,
   "Longitude":121.528995,
   "Tel":"(02)2357-0217"
 },
 {
   "Name":"全民連鎖動物醫院-信義分院",
   "Address":"台北市大安區信義路4段406、408號1、2樓",
   "Latitude":25.0328746,
   "Longitude":121.55697,
   "Tel":"(02)2791-9959"
 },
 {
   "Name":"維東尼動物醫院",
   "Address":"台北市大安區建國南路1段358號",
   "Latitude":25.0337439,
   "Longitude":121.537393,
   "Tel":"(02)2709-0123"
 },
 {
   "Name":"宏成動物醫院",
   "Address":"台北市大安區和平東路3段26號1樓",
   "Latitude":25.0245348,
   "Longitude":121.5474801,
   "Tel":"(02)2378-0228"
 },
 {
   "Name":"亞洲獸醫專科醫院",
   "Address":"台北市大安區信義路4段109號1樓",
   "Latitude":25.0335104,
   "Longitude":121.5477431,
   "Tel":"(02)2708-1488"
 },
 {
   "Name":"中心動物醫院",
   "Address":"台北市大安區仁愛路4段411號1樓",
   "Latitude":25.0380811,
   "Longitude":121.5560092,
   "Tel":"(02)2741-0443"
 },
 {
   "Name":"中美獸醫院",
   "Address":"台北市大安區瑞安街180巷2之1號1樓",
   "Latitude":25.028905,
   "Longitude":121.541002,
   "Tel":"(02)2701-7500"
 },
 {
   "Name":"社團法人台灣愛貓協會",
   "Address":"台北市大安區仁愛路4段345巷2弄3號4樓",
   "Latitude":25.0385494,
   "Longitude":121.5538859,
   "Tel":"970061178"
 },
 {
   "Name":"明誠動物醫院",
   "Address":"台北市大安區瑞安街45號1樓",
   "Latitude":25.0297331,
   "Longitude":121.5430394,
   "Tel":"(02)2708-6310"
 },
 {
   "Name":"極光動物醫院",
   "Address":"台北市大安區建國南路2段31號",
   "Latitude":25.0323308,
   "Longitude":121.5382047,
   "Tel":"(02)2784-8211"
 },
 {
   "Name":"麟安動物醫院",
   "Address":"台北市大安區和平東路3段324號",
   "Latitude":25.019874,
   "Longitude":121.5570437,
   "Tel":"(02)2738-3008"
 },
 {
   "Name":"中華民國流浪動物花園協會",
   "Address":"台北市大安區羅斯福路三段269巷70號6樓",
   "Latitude":25.0207511,
   "Longitude":121.5315709,
   "Tel":"(02)2662-0375"
 },
 {
   "Name":"幸福動物醫院",
   "Address":"台北市大安區延吉街251號1樓",
   "Latitude":25.034901,
   "Longitude":121.556243,
   "Tel":"(02)2700-5277"
 },
 {
   "Name":"敦品動物醫院",
   "Address":"台北市大安區大安路1段205號1樓",
   "Latitude":25.0353221,
   "Longitude":121.5461797,
   "Tel":"(02)2707-0877"
 },
 {
   "Name":"常明動物眼科醫院",
   "Address":"台北市大安區和平東路2段201號1樓",
   "Latitude":25.0252437,
   "Longitude":121.5423459,
   "Tel":"(02)2703-0809"
 },
 {
   "Name":"曾安動物醫院",
   "Address":"台北市大安區通化街148號1樓",
   "Latitude":25.028819,
   "Longitude":121.5537724,
   "Tel":"(02)2738-3248"
 },
 {
   "Name":"育生動物醫院",
   "Address":"台北市大安區忠孝東路3段233~1號1樓",
   "Latitude":25.0418907,
   "Longitude":121.5405642,
   "Tel":"(02)2776-1886"
 },
 {
   "Name":"名人動物醫院",
   "Address":"台北市大安區仁愛路4段48巷23號1樓",
   "Latitude":25.0363118,
   "Longitude":121.5471997,
   "Tel":"(02)2706-4987"
 },
 {
   "Name":"弘吉獸醫院",
   "Address":"台北市大安區市民大道3段238號1樓",
   "Latitude":25.0443266,
   "Longitude":121.5414621,
   "Tel":"(02)2741-0958"
 },
 {
   "Name":"見安獸醫院",
   "Address":"台北市大安區四維路170巷45號1樓",
   "Latitude":25.0284167,
   "Longitude":121.5463133,
   "Tel":"(02)2707-0989"
 },
 {
   "Name":"國立台灣大學生物資源暨農學院附設動物醫院",
   "Address":"台北市大安區基隆路3段153號",
   "Latitude":25.0155283,
   "Longitude":121.5430769,
   "Tel":"(02)2739-6828"
 },
 {
   "Name":"社團法人中華民國保護動物協會",
   "Address":"台北市大安區信義路4段263號3樓之6",
   "Latitude":25.033285,
   "Longitude":121.5541316,
   "Tel":"(02)2704-0809"
 },
 {
   "Name":"瀚生動物醫院",
   "Address":"台北市大安區新生南路一段144之1號1樓",
   "Latitude":25.0356886,
   "Longitude":121.5324867,
   "Tel":"(02)2358-1765"
 },
 {
   "Name":"敦化動物醫院",
   "Address":"台北市大安區敦化南路一段279號1樓",
   "Latitude":25.035926,
   "Longitude":121.549543,
   "Tel":"(02)2708-0284"
 },
 {
   "Name":"沐恩動物醫院",
   "Address":"台北市大安區基隆路二段220號1至4樓",
   "Latitude":25.0281173,
   "Longitude":121.5565595,
   "Tel":"(02)2378-2300"
 },
 {
   "Name":"富康動物醫院",
   "Address":"台北市大安區建國南路一段298號1樓",
   "Latitude":25.0358618,
   "Longitude":121.5373502,
   "Tel":"(02)2702-0135"
 },
 {
   "Name":"專心動物醫院",
   "Address":"台北市大安區和平東路二段34-1號1樓",
   "Latitude":25.025482,
   "Longitude":121.536898,
   "Tel":"(02)2363-3016"
 },
 {
   "Name":"澄毅動物醫院",
   "Address":"台北市大安區安和路二段171巷13號1樓",
   "Latitude":25.0282837,
   "Longitude":121.5505858,
   "Tel":"(02)2733-4341"
 },
 {
   "Name":"聖地牙哥動物醫院",
   "Address":"台北市大安區羅斯福路3段65號3Ｆ-1",
   "Latitude":25.022938,
   "Longitude":121.52597,
   "Tel":"(02)2364-3458"
 },
 {
   "Name":"哈佛動物醫院",
   "Address":"台北市大安區樂利路61號1樓",
   "Latitude":25.0263947,
   "Longitude":121.5519011,
   "Tel":"(02)2736-6176"
 },
 {
   "Name":"康福動物醫院",
   "Address":"台北市大安區瑞安街135巷23號1樓",
   "Latitude":25.0267501,
   "Longitude":121.5411002,
   "Tel":"(02)2707-4075"
 },
 {
   "Name":"圓霖動物醫院－通化分院",
   "Address":"台北市大安區基隆路二段118號",
   "Latitude":25.0290157,
   "Longitude":121.5569225,
   "Tel":"(02)2735-3538"
 },
 {
   "Name":"愛狗園動物醫院",
   "Address":"台北市大安區基隆路2段124號",
   "Latitude":25.028914,
   "Longitude":121.5568329,
   "Tel":"(02)2739-2966"
 },
 {
   "Name":"上群動物醫院",
   "Address":"台北市大安區延吉街72-20號1樓",
   "Latitude":25.0422676,
   "Longitude":121.5540849,
   "Tel":"(02)2775-3007"
 },
 {
   "Name":"慈愛動物醫院－延吉分院",
   "Address":"台北市大安區延吉街239-1號",
   "Latitude":25.0363503,
   "Longitude":121.5556856,
   "Tel":"(02)2704-5857"
 },
 {
   "Name":"佑仁動物醫院",
   "Address":"台北市大安區和平東路一段200號1樓",
   "Latitude":25.026163,
   "Longitude":121.53126,
   "Tel":"(02)2363-5377"
 },
 {
   "Name":"遠見動物眼科醫院",
   "Address":"台北市大安區和平東路2段68號1樓",
   "Latitude":25.0252831,
   "Longitude":121.5389954,
   "Tel":"(02)2377-5388"
 },
 {
   "Name":"碩聯動物醫院",
   "Address":"台北市大安區辛亥路2段143號1樓",
   "Latitude":25.021717,
   "Longitude":121.539904,
   "Tel":"(02)2736-6549"
 },
 {
   "Name":"仁愛動物醫院",
   "Address":"台北市大安區仁愛路四段228之5號1樓",
   "Latitude":25.037374,
   "Longitude":121.552162,
   "Tel":"(02)2702-9165"
 },
 {
   "Name":"萬國家畜醫院",
   "Address":"台北市大安區新生南路二段80-3號1樓",
   "Latitude":25.027229,
   "Longitude":121.534543,
   "Tel":"(02)2396-5136"
 },
 {
   "Name":"五洲動物醫院",
   "Address":"台北市大安區新生南路一段137-2號1樓",
   "Latitude":25.0369343,
   "Longitude":121.5329971,
   "Tel":"(02)2707-9477"
 },
 {
   "Name":"萬華動物醫院",
   "Address":"台北市萬華區昆明街165號1樓",
   "Latitude":25.0401617,
   "Longitude":121.5044277,
   "Tel":"(02)2361-4831"
 },
 {
   "Name":"長青動物醫院",
   "Address":"台北市萬華區廣州街78號",
   "Latitude":25.0364592,
   "Longitude":121.5028484,
   "Tel":"(02)2336-9908"
 },
 {
   "Name":"華中動物醫院",
   "Address":"台北市萬華區萬大路227號1樓",
   "Latitude":25.0265619,
   "Longitude":121.5006744,
   "Tel":"(02)2332-8572"
 },
 {
   "Name":"大東動物醫院",
   "Address":"台北市萬華區東園街158號1樓",
   "Latitude":25.0227697,
   "Longitude":121.4978311,
   "Tel":"(02)2309-8379"
 },
 {
   "Name":"環南動物醫院",
   "Address":"台北市萬華區和平西路三段205號1樓",
   "Latitude":25.0354959,
   "Longitude":121.4970431,
   "Tel":"(02)2302-0109"
 },
 {
   "Name":"保全動物醫院",
   "Address":"台北市萬華區西藏路324、326號1樓",
   "Latitude":25.0295542,
   "Longitude":121.5002063,
   "Tel":"(02)2302-4375"
 },
 {
   "Name":"康寧動物醫院",
   "Address":"台北市萬華區長沙街二段157號1樓",
   "Latitude":25.0405535,
   "Longitude":121.5024963,
   "Tel":"(02)2383-1528"
 },
 {
   "Name":"安迪動物醫院",
   "Address":"台北市萬華區西園路二段175號1樓",
   "Latitude":25.02786,
   "Longitude":121.4951773,
   "Tel":"(02)2305-5518"
 },
 {
   "Name":"古德動物醫院",
   "Address":"台北市萬華區西園路二段194號",
   "Latitude":25.029294,
   "Longitude":121.4957555,
   "Tel":"(02)2308-8986"
 },
 {
   "Name":"雙園動物醫院",
   "Address":"台北市萬華區西園路二段105號1樓",
   "Latitude":25.0302139,
   "Longitude":121.4966249,
   "Tel":"(02)2308-4409"
 },
 {
   "Name":"欣欣動物醫院",
   "Address":"台北市信義區松隆路286-1號",
   "Latitude":25.0483,
   "Longitude":121.575878,
   "Tel":"27681119"
 },
 {
   "Name":"臺北市動物保護處",
   "Address":"台北市信義區吳興街600巷109號",
   "Latitude":25.0187909,
   "Longitude":121.572615,
   "Tel":"02-87897158"
 },
 {
   "Name":"沐樂動物醫院",
   "Address":"台北市信義區忠孝東路4段559巷30號",
   "Latitude":25.0428894,
   "Longitude":121.5638309,
   "Tel":"(02)2769-9899"
 },
 {
   "Name":"星辰動物醫院",
   "Address":"台北市信義區松隆路227號",
   "Latitude":25.0484,
   "Longitude":121.576923,
   "Tel":"227611199"
 },
 {
   "Name":"青森動物醫院",
   "Address":"台北市信義區松仁路188號1樓",
   "Latitude":25.0276659,
   "Longitude":121.568227,
   "Tel":"02-2345-6755"
 },
 {
   "Name":"大愛動物醫院",
   "Address":"台北市信義區松德路74號1樓",
   "Latitude":25.038355,
   "Longitude":121.575748,
   "Tel":"(02)8780-5116"
 },
 {
   "Name":"新東動物醫院",
   "Address":"台北市信義區忠孝東路5段189號1樓",
   "Latitude":25.041237,
   "Longitude":121.569338,
   "Tel":"(02)2765-6189"
 },
 {
   "Name":"艾爾瑪動物醫院",
   "Address":"台北市信義區仁愛路4段452巷8號1樓",
   "Latitude":25.0370346,
   "Longitude":121.5591108,
   "Tel":"(02)8789-4859"
 },
 {
   "Name":"青森動物醫院",
   "Address":"台北市信義區松仁路188號1樓",
   "Latitude":25.0276659,
   "Longitude":121.568227,
   "Tel":"(02)2345-6755"
 },
 {
   "Name":"松山動物醫院",
   "Address":"台北市信義區松山路275號1樓",
   "Latitude":25.04342,
   "Longitude":121.5780145,
   "Tel":"(02)2767-3322"
 },
 {
   "Name":"臺北市流浪貓保護協會附設貓醫院",
   "Address":"台北市信義區信義路6段81號1樓",
   "Latitude":25.035755,
   "Longitude":121.577255,
   "Tel":"(02)-2726-1872"
 },
 {
   "Name":"社團法人台灣收容動物關懷協會",
   "Address":"台北市信義區忠孝東路5段743巷17號2樓",
   "Latitude":25.0437039,
   "Longitude":121.580919,
   "Tel":"(02)-2297-8260"
 },
 {
   "Name":"格林動物醫院",
   "Address":"台北市信義區光復南路455號1樓",
   "Latitude":25.0345826,
   "Longitude":121.5577111,
   "Tel":"(02)-2725-5575"
 },
 {
   "Name":"愛心動物醫院",
   "Address":"台北市信義區光復南路563號1樓",
   "Latitude":25.0310706,
   "Longitude":121.5576225,
   "Tel":"(02)-2345-1633"
 },
 {
   "Name":"名冠動物醫院",
   "Address":"台北市信義區中坡南路207號1樓",
   "Latitude":25.0413612,
   "Longitude":121.5855034,
   "Tel":"(02)2759-0447"
 },
 {
   "Name":"北海道動物醫院",
   "Address":"台北市信義區基隆路2段185號",
   "Latitude":25.0249244,
   "Longitude":121.5534352,
   "Tel":"(02)2735-8949"
 },
 {
   "Name":"詠欣動物醫院",
   "Address":"台北市信義區莊敬路428號1樓",
   "Latitude":25.027017,
   "Longitude":121.566676,
   "Tel":"(02)2720-2631"
 },
 {
   "Name":"豐德動物醫院",
   "Address":"台北市信義區莊敬路235號1樓",
   "Latitude":25.0297822,
   "Longitude":121.5622721,
   "Tel":"(02)2758-8292"
 },
 {
   "Name":"圓霖動物醫院－基隆路分院",
   "Address":"台北市信義區基隆路二段107-5號",
   "Latitude":25.0292464,
   "Longitude":121.5573877,
   "Tel":"(02)2732-0283"
 },
 {
   "Name":"玉山動物醫院",
   "Address":"台北市信義區信義路6段37號1樓",
   "Latitude":25.034922,
   "Longitude":121.576084,
   "Tel":"(02)2346-6659"
 },
 {
   "Name":"圓霖動物醫院－信安分院",
   "Address":"台北市信義區信安街99號1樓",
   "Latitude":25.025523,
   "Longitude":121.5568554,
   "Tel":"(02)2733-0008"
 },
 {
   "Name":"星辰動物醫院",
   "Address":"台北市信義區松隆路227號",
   "Latitude":25.0484,
   "Longitude":121.576923,
   "Tel":"(02)2761-1199"
 },
 {
   "Name":"恩加動物醫院",
   "Address":"台北市信義區松山路315-2號1樓",
   "Latitude":25.042267,
   "Longitude":121.578057,
   "Tel":"(02)8787-7551"
 },
 {
   "Name":"欣佳動物醫院",
   "Address":"台北市信義區忠孝東路五段768號1樓",
   "Latitude":25.0432877,
   "Longitude":121.5814063,
   "Tel":"(02)2728-5261"
 },
 {
   "Name":"永春動物醫院",
   "Address":"台北市信義區忠孝東路5段424號1樓",
   "Latitude":25.040685,
   "Longitude":121.575551,
   "Tel":"(02)8789-8849"
 },
 {
   "Name":"文逸動物醫院",
   "Address":"台北市信義區和平東路三段391巷8弄27號1樓",
   "Latitude":25.0206935,
   "Longitude":121.5574751,
   "Tel":"(02)2732-2254"
 },
 {
   "Name":"安興動物醫院",
   "Address":"台北市信義區吳興街478號1樓",
   "Latitude":25.02357,
   "Longitude":121.5692776,
   "Tel":"(02)2758-4351"
 },
 {
   "Name":"華欣家畜醫院",
   "Address":"台北市信義區光復南路473巷13弄7號1樓",
   "Latitude":25.0342645,
   "Longitude":121.5584346,
   "Tel":"(02)2705-4895"
 },
 {
   "Name":"安安動物醫院",
   "Address":"台北市信義區松德路57號1樓",
   "Latitude":25.0387759,
   "Longitude":121.576994,
   "Tel":"(02)2728-1315"
 },
 {
   "Name":"崇安動物醫院",
   "Address":"台北市信義區中坡南路62號1樓",
   "Latitude":25.0418732,
   "Longitude":121.58476,
   "Tel":"(02)2727-6027"
 },
 {
   "Name":"欣旺動物醫院",
   "Address":"台北市信義區松山路265號1樓",
   "Latitude":25.043633,
   "Longitude":121.5780157,
   "Tel":"(02)2761-7985"
 },
 {
   "Name":"陽光犬貓專科醫院",
   "Address":"台北市信義區林口街222號1樓",
   "Latitude":25.042139,
   "Longitude":121.581203,
   "Tel":"(02)2727-9922"
 },
 {
   "Name":"立健動物醫院",
   "Address":"台北市信義區和平東路三段255號1樓",
   "Latitude":25.0227276,
   "Longitude":121.5546544,
   "Tel":"(02)2733-9102"
 },
 {
   "Name":"愛心動物醫院",
   "Address":"台北市信義區光復南路563號1樓",
   "Latitude":25.0310706,
   "Longitude":121.5576225,
   "Tel":"(02)2345-1633"
 },
 {
   "Name":"台愛動物醫院",
   "Address":"台北市士林區中正路629號",
   "Latitude":25.086222,
   "Longitude":121.5086007,
   "Tel":"(02)8811-5729"
 },
 {
   "Name":"天母家畜醫院",
   "Address":"台北市士林區中山北路六段431-3號",
   "Latitude":25.1142361,
   "Longitude":121.5270991,
   "Tel":"(02)2874-6381"
 },
 {
   "Name":"天母太僕動物醫院",
   "Address":"台北市士林區天母西路48號1樓",
   "Latitude":25.118305,
   "Longitude":121.5251024,
   "Tel":"(02)2873-2070"
 },
 {
   "Name":"厚德動物醫院",
   "Address":"台北市士林區華齡街54號1樓",
   "Latitude":25.0842144,
   "Longitude":121.519481,
   "Tel":"(02)2883-1716"
 },
 {
   "Name":"中興動物醫院",
   "Address":"台北市士林區延平北路6段245號1樓",
   "Latitude":25.0891054,
   "Longitude":121.5042166,
   "Tel":"(02)2811-3970"
 },
 {
   "Name":"陽明家畜醫院",
   "Address":"台北市士林區天母東路1之6號1樓",
   "Latitude":25.1183173,
   "Longitude":121.5312502,
   "Tel":"(02)2872-6911"
 },
 {
   "Name":"士林獸醫院",
   "Address":"台北市士林區中正路379號1樓",
   "Latitude":25.094204,
   "Longitude":121.521699,
   "Tel":"(02)2882-2193"
 },
 {
   "Name":"常源動物醫院",
   "Address":"台北市士林區德行東路189號1樓",
   "Latitude":25.1089582,
   "Longitude":121.5315964,
   "Tel":"02-2837-0616"
 },
 {
   "Name":"傑翔動物醫院",
   "Address":"台北市士林區重慶北路3段33之2號",
   "Latitude":25.0652238,
   "Longitude":121.5139107,
   "Tel":"(02)2599-2110"
 },
 {
   "Name":"忠誠獸醫院",
   "Address":"台北市士林區文林路734號1樓",
   "Latitude":25.1027758,
   "Longitude":121.52048,
   "Tel":"(02)2835-1390"
 },
 {
   "Name":"福臨動物醫院",
   "Address":"台北市士林區中山北路5段519號1樓",
   "Latitude":25.0938741,
   "Longitude":121.5278575,
   "Tel":"(02)2883-6500"
 },
 {
   "Name":"芝山動物醫院",
   "Address":"台北市士林區福國路17-1號、19~1號1樓",
   "Latitude":25.1019291,
   "Longitude":121.5245446,
   "Tel":"(02)2832-8385"
 },
 {
   "Name":"唯安動物醫院",
   "Address":"台北市士林區承德路四段18號1樓",
   "Latitude":25.0801037,
   "Longitude":121.5218253,
   "Tel":"(02)2885-1695"
 },
 {
   "Name":"明匯動物醫院",
   "Address":"台北市士林區忠誠路1段151號1樓",
   "Latitude":25.1066166,
   "Longitude":121.5300736,
   "Tel":"(02)2838-1457"
 },
 {
   "Name":"劍橋動物醫院",
   "Address":"台北市士林區忠誠路1段102號1Ｆ",
   "Latitude":25.1053123,
   "Longitude":121.528362,
   "Tel":"(02)8866-5889"
 },
 {
   "Name":"昌展動物醫院",
   "Address":"台北市士林區延平北路六段160號1樓",
   "Latitude":25.08963,
   "Longitude":121.506626,
   "Tel":"(02)2816-9197"
 },
 {
   "Name":"社子動物醫院",
   "Address":"台北市士林區延平北路五段191號1樓",
   "Latitude":25.0833781,
   "Longitude":121.5100295,
   "Tel":"(02)2816-5355"
 },
 {
   "Name":"中華動物醫院",
   "Address":"台北市士林區文林路311號1樓",
   "Latitude":25.0921275,
   "Longitude":121.5259753,
   "Tel":"(02)2882-7381"
 },
 {
   "Name":"微笑動物醫院",
   "Address":"台北市士林區中山北路七段163號1樓",
   "Latitude":25.123837,
   "Longitude":121.5322569,
   "Tel":"(02)2873-0728"
 },
 {
   "Name":"世東動物醫院",
   "Address":"台北市士林區士東路39號1樓",
   "Latitude":25.1120152,
   "Longitude":121.5273866,
   "Tel":"(02)2871-2529"
 },
 {
   "Name":"溫莎動物醫院",
   "Address":"台北市士林區德行東路83號1樓",
   "Latitude":25.1074987,
   "Longitude":121.5274749,
   "Tel":"(02)2834-5969"
 },
 {
   "Name":"劉動物醫院",
   "Address":"台北市士林區德行東路269號1樓",
   "Latitude":25.1100751,
   "Longitude":121.5353189,
   "Tel":"(02)2836-5679"
 },
 {
   "Name":"信達犬貓專科醫院",
   "Address":"台北市士林區華齡街22巷15弄5號1樓",
   "Latitude":25.0834678,
   "Longitude":121.5203531,
   "Tel":"(02)2881-2150"
 },
 {
   "Name":"汎亞動物醫院",
   "Address":"台北市士林區承德路4段53號1樓",
   "Latitude":25.0813259,
   "Longitude":121.522989,
   "Tel":"(02)2886-1610"
 },
 {
   "Name":"藍天家畜醫院",
   "Address":"台北市士林區文林路759號1樓",
   "Latitude":25.103274,
   "Longitude":121.519365,
   "Tel":"(02)2838-0088"
 },
 {
   "Name":"黃動物醫院",
   "Address":"台北市士林區文林路176號1樓",
   "Latitude":25.0895213,
   "Longitude":121.5270063,
   "Tel":"(02)8861-4959"
 },
 {
   "Name":"楊動物醫院",
   "Address":"台北市士林區)中山北路6段368號1樓",
   "Latitude":25.112315,
   "Longitude":121.526461,
   "Tel":"(02)2871-7261"
 },
 {
   "Name":"杜瑪動物醫院",
   "Address":"台北市北投區大業路541號1樓",
   "Latitude":25.135428,
   "Longitude":121.496489,
   "Tel":"(02)2897-7779"
 },
 {
   "Name":"百科家畜醫院",
   "Address":"台北市北投區西安街1段361號1樓",
   "Latitude":25.1143055,
   "Longitude":121.5152628,
   "Tel":"(02)2821-4942"
 },
 {
   "Name":"大葉動物醫院",
   "Address":"台北市北投區大業路394號1樓",
   "Latitude":25.1299799,
   "Longitude":121.497191,
   "Tel":"(02)2893-5372"
 },
 {
   "Name":"和欣動物醫院",
   "Address":"台北市北投區雙全街7號1樓",
   "Latitude":25.1389229,
   "Longitude":121.501275,
   "Tel":"(02)2897-3439"
 },
 {
   "Name":"豐茂動物醫院",
   "Address":"台北市北投區實踐街64號1樓",
   "Latitude":25.1151551,
   "Longitude":121.5099233,
   "Tel":"(02)2821-0824"
 },
 {
   "Name":"丹堤動物醫院",
   "Address":"台北市北投區知行路208-2號1樓",
   "Latitude":25.119359,
   "Longitude":121.466859,
   "Tel":"(02)5586-5668"
 },
 {
   "Name":"明德動物醫院",
   "Address":"台北市北投區明德路115號1樓",
   "Latitude":25.109937,
   "Longitude":121.519817,
   "Tel":"(02)2823-9018"
 },
 {
   "Name":"全民連鎖動物醫院-北投分院",
   "Address":"台北市北投區光明路61號1樓",
   "Latitude":25.1329088,
   "Longitude":121.4998857,
   "Tel":"(02)2893-9752"
 },
 {
   "Name":"芸林動物醫院",
   "Address":"台北市北投區石牌路二段332-1號1樓",
   "Latitude":25.122378,
   "Longitude":121.524396,
   "Tel":"(02)2872-1398"
 },
 {
   "Name":"加生動物醫院",
   "Address":"台北市北投區石牌路1段95號1樓",
   "Latitude":25.1139344,
   "Longitude":121.5117588,
   "Tel":"(02)2820-7218"
 },
 {
   "Name":"百威動物醫院",
   "Address":"台北市北投區中和街288號1樓",
   "Latitude":25.140542,
   "Longitude":121.500303,
   "Tel":"(02)2891-0951"
 },
 {
   "Name":"北投動物醫院",
   "Address":"台北市北投區中央北路二段60-1號1樓",
   "Latitude":25.1373156,
   "Longitude":121.4948523,
   "Tel":"(02)2892-8665"
 },
 {
   "Name":"大同動物醫院",
   "Address":"台北市北投區中央北路二段112號1樓",
   "Latitude":25.1373347,
   "Longitude":121.4926584,
   "Tel":"(02)2895-9607"
 },
 {
   "Name":"中英動物醫院",
   "Address":"台北市北投區中央北路1段149號1樓",
   "Latitude":25.135338,
   "Longitude":121.498555,
   "Tel":"(02)2893-6119"
 },
 {
   "Name":"聯合家畜醫院",
   "Address":"台北市北投區裕民一路40巷29號1樓",
   "Latitude":25.1154468,
   "Longitude":121.5177941,
   "Tel":"(02)2828-2117"
 },
 {
   "Name":"旺旺動物醫院",
   "Address":"台北市北投區東華街二段2號1樓",
   "Latitude":25.1156486,
   "Longitude":121.5151031,
   "Tel":"(02)2820-3693"
 },
 {
   "Name":"佳康動物醫院",
   "Address":"台北市內湖區康寧路3段169之1號",
   "Latitude":25.0702044,
   "Longitude":121.6118376,
   "Tel":"(02)2631-8345"
 },
 {
   "Name":"宇恒動物醫院",
   "Address":"台北市內湖區民權東路6段57號",
   "Latitude":25.0692727,
   "Longitude":121.5873366,
   "Tel":"(02)2795-1676"
 },
 {
   "Name":"全國動物醫院-台北分院",
   "Address":"台北市內湖區舊宗路一段30巷13號",
   "Latitude":25.0577448,
   "Longitude":121.5803163,
   "Tel":"02-87918706"
 },
 {
   "Name":"班特動物醫院",
   "Address":"台北市內湖區成功路3段164號1樓",
   "Latitude":25.080504,
   "Longitude":121.59021,
   "Tel":"(02)2793-4030"
 },
 {
   "Name":"亞馬森動物醫院",
   "Address":"台北市內湖區成功路4段311號1樓",
   "Latitude":25.0844959,
   "Longitude":121.598386,
   "Tel":"(02)8792-3248"
 },
 {
   "Name":"佳恩動物醫院",
   "Address":"台北市內湖區成功路3段117號1樓",
   "Latitude":25.0788874,
   "Longitude":121.5898029,
   "Tel":"(02)2794-1290"
 },
 {
   "Name":"康泰動物醫院",
   "Address":"台北市內湖區康樂街164之1號1樓",
   "Latitude":25.0732345,
   "Longitude":121.6194003,
   "Tel":"(02)2631-3068"
 },
 {
   "Name":"中山動物醫院-內湖分院",
   "Address":"台北市內湖區文德路93號1樓",
   "Latitude":25.0785641,
   "Longitude":121.5829908,
   "Tel":"(02)2657-8019"
 },
 {
   "Name":"臺北市動物保護處(臺北市動物之家)",
   "Address":"台北市內湖區潭美街852號",
   "Latitude":25.063111,
   "Longitude":121.6089355,
   "Tel":"(02)8791-3254~5"
 },
 {
   "Name":"佳欣動物醫院",
   "Address":"台北市內湖區內湖路二段383號1樓",
   "Latitude":25.0839929,
   "Longitude":121.592452,
   "Tel":"(02)2794-6126"
 },
 {
   "Name":"德安動物醫院",
   "Address":"台北市內湖區內湖路一段611號1樓",
   "Latitude":25.0807708,
   "Longitude":121.5738647,
   "Tel":"(02)2658-2478"
 },
 {
   "Name":"內湖動物醫院",
   "Address":"台北市內湖區內湖路一段45號1樓",
   "Latitude":25.0851948,
   "Longitude":121.5591866,
   "Tel":"(02)2799-2011"
 },
 {
   "Name":"全國動物醫院－台北分院",
   "Address":"台北市內湖區舊宗路一段30巷13號1、2樓",
   "Latitude":25.0577448,
   "Longitude":121.5803163,
   "Tel":"(02)8791-8706"
 },
 {
   "Name":"港墘動物醫院",
   "Address":"台北市內湖區港墘路109之2號1樓",
   "Latitude":25.0798618,
   "Longitude":121.5776421,
   "Tel":"(02)2657-5990"
 },
 {
   "Name":"勝利動物醫院",
   "Address":"台北市內湖區康樂街116-2號1樓",
   "Latitude":25.0711709,
   "Longitude":121.618944,
   "Tel":"(02)2632-7815"
 },
 {
   "Name":"長慶動物醫院",
   "Address":"台北市內湖區東湖路7巷7號1樓",
   "Latitude":25.069344,
   "Longitude":121.612821,
   "Tel":"(02)2633-1257"
 },
 {
   "Name":"東湖動物醫院",
   "Address":"台北市內湖區東湖路43巷5號1樓",
   "Latitude":25.0692147,
   "Longitude":121.6139984,
   "Tel":"(02)2633-2220"
 },
 {
   "Name":"全安動物醫院",
   "Address":"台北市內湖區東湖路113巷54號1樓",
   "Latitude":25.0708598,
   "Longitude":121.6160312,
   "Tel":"(02)2633-6995"
 },
 {
   "Name":"納嘉動物醫院",
   "Address":"台北市內湖區成功路五段55號1樓",
   "Latitude":25.0743397,
   "Longitude":121.6061943,
   "Tel":"(02)2633-0555"
 },
 {
   "Name":"大湖動物醫院",
   "Address":"台北市內湖區成功路五段10號1樓",
   "Latitude":25.0846337,
   "Longitude":121.6009894,
   "Tel":"(02)2796-8241"
 },
 {
   "Name":"維康動物醫院",
   "Address":"台北市內湖區成功路3段150號1樓",
   "Latitude":25.080006,
   "Longitude":121.589837,
   "Tel":"(02)2793-7293"
 },
 {
   "Name":"加洲動物醫院",
   "Address":"台北市內湖區文德路9號1樓",
   "Latitude":25.0785252,
   "Longitude":121.5804615,
   "Tel":"(02)2798-7942"
 },
 {
   "Name":"西湖動物醫院",
   "Address":"台北市內湖區內湖路一段341-2號1樓",
   "Latitude":25.0822828,
   "Longitude":121.5688753,
   "Tel":"(02)2799-0700"
 },
 {
   "Name":"健生動物醫院",
   "Address":"台北市內湖區成功路四段182巷8弄4號1樓",
   "Latitude":25.0840801,
   "Longitude":121.5935903,
   "Tel":"(02)2791-0198"
 },
 {
   "Name":"維恩動物醫院",
   "Address":"台北市南港區東新街132號1樓",
   "Latitude":25.0464642,
   "Longitude":121.5887269,
   "Tel":"(02)2651-5527"
 },
 {
   "Name":"啟正動物醫院",
   "Address":"台北市南港區南港路一段289-1號1樓",
   "Latitude":25.0544413,
   "Longitude":121.6082266,
   "Tel":"(02)2651-7616"
 },
 {
   "Name":"中研動物醫院",
   "Address":"台北市南港區研究院路1段72號1樓",
   "Latitude":25.0528057,
   "Longitude":121.616026,
   "Tel":"(02)2651-2100"
 },
 {
   "Name":"洪生動物醫院",
   "Address":"台北市南港區忠孝東路七段571號1號",
   "Latitude":25.0531174,
   "Longitude":121.6141292,
   "Tel":"(02)2783-3715"
 },
 {
   "Name":"景興動物醫院",
   "Address":"台北市文山區景華街92號1樓",
   "Latitude":24.9949579,
   "Longitude":121.5457,
   "Tel":"02-29330600"
 },
 {
   "Name":"景文動物醫院",
   "Address":"台北市文山區景文街29號",
   "Latitude":24.9924319,
   "Longitude":121.541432,
   "Tel":"02-89319955"
 },
 {
   "Name":"亞太動物醫院",
   "Address":"台北市文山區文山區景福街244號1樓及地下1樓",
   "Latitude":25.0329636,
   "Longitude":121.5654268,
   "Tel":"(02)3365-3377"
 },
 {
   "Name":"躍犬綜合動物醫院",
   "Address":"台北市文山區景文街90巷5號1樓",
   "Latitude":24.990409,
   "Longitude":121.540658,
   "Tel":"(02)2933-0963"
 },
 {
   "Name":"北新獸醫院",
   "Address":"台北市文山區羅斯福路5段172號4樓",
   "Latitude":25.0043935,
   "Longitude":121.538633,
   "Tel":"(02)2931-0690"
 },
 {
   "Name":"大群動物醫院",
   "Address":"台北市文山區羅斯福路6段206號1樓",
   "Latitude":24.9936051,
   "Longitude":121.5407931,
   "Tel":"(02)2930-5557"
 },
 {
   "Name":"安心動物醫院",
   "Address":"台北市文山區羅斯福路5段17號1樓",
   "Latitude":25.007971,
   "Longitude":121.538481,
   "Tel":"(02)2932-6935"
 },
 {
   "Name":"靜心動物醫院",
   "Address":"台北市文山區興隆路二段21．23號1樓",
   "Latitude":24.998932,
   "Longitude":121.545506,
   "Tel":"(02)2933-0562"
 },
 {
   "Name":"木新動物醫院",
   "Address":"台北市文山區木新路三段133-2號1樓",
   "Latitude":24.9817653,
   "Longitude":121.5617963,
   "Tel":"(02)2936-2748"
 },
 {
   "Name":"正吉動物醫院",
   "Address":"台北市文山區羅斯福路五段47之1號1樓",
   "Latitude":25.007196,
   "Longitude":121.539014,
   "Tel":"(02)2934-7505"
 },
 {
   "Name":"品安動物醫院",
   "Address":"台北市文山區羅斯福路6段89號1樓",
   "Latitude":24.998807,
   "Longitude":121.540464,
   "Tel":"(02)2935-9188"
 },
 {
   "Name":"自強動物醫院",
   "Address":"台北市文山區興隆路四段108號1樓",
   "Latitude":24.9830944,
   "Longitude":121.562072,
   "Tel":"(02)2937-2852"
 },
 {
   "Name":"路加動物醫院",
   "Address":"台北市文山區興隆路二段224-4號1樓",
   "Latitude":25.0011677,
   "Longitude":121.5532012,
   "Tel":"(02)5585-2108"
 },
 {
   "Name":"再興動物醫院",
   "Address":"台北市文山區興隆路一段1號1樓",
   "Latitude":25.0044848,
   "Longitude":121.5390374,
   "Tel":"(02)2934-2899"
 },
 {
   "Name":"達仁動物醫院",
   "Address":"台北市文山區木柵路2段133號1樓",
   "Latitude":24.9890432,
   "Longitude":121.5622029,
   "Tel":"(02)2937-1558"
 },
 {
   "Name":"景美動物醫院",
   "Address":"台北市文山區羅斯福路六段6號1樓",
   "Latitude":25.0003759,
   "Longitude":121.5393416,
   "Tel":"(02)2931-0850"
 },
 {
   "Name":"康禾動物醫院",
   "Address":"台北市文山區興隆路四段159-1號1樓",
   "Latitude":24.9843404,
   "Longitude":121.5619764,
   "Tel":"(02)2937-4998"
 },
 {
   "Name":"正興獸醫院",
   "Address":"台北市文山區興隆路二段95巷5之1號1樓",
   "Latitude":24.9997386,
   "Longitude":121.546823,
   "Tel":"(02)2933-0607"
 },
 {
   "Name":"維拉動物醫院",
   "Address":"台北市文山區興隆路一段94號1樓",
   "Latitude":25.0029807,
   "Longitude":121.5410752,
   "Tel":"(02)2933-3872"
 }
]