[
  {
    "Name": "可愛動物醫院(林富榮)",
    "Address": "台東縣台東市豐榮里仁和街108號",
    "Latitude": 22.7522487,
    "Longitude": 121.1320751,
    "Tel": "089-353856"
  },
  {
    "Name": "畜安動物醫院",
    "Address": "台東縣台東市新成街20號",
    "Latitude": 22.7695569,
    "Longitude": 121.124317,
    "Tel": "089-2323-8808"
  },
  {
    "Name": "心語動物醫院",
    "Address": "台東縣台東市中興路2段450巷12號1樓",
    "Latitude": 22.7692514,
    "Longitude": 121.1237473,
    "Tel": "089-220253"
  },
  {
    "Name": "台東縣動物防疫所",
    "Address": "台東縣台東市中興路二段733號",
    "Latitude": 22.7697066,
    "Longitude": 121.1176509,
    "Tel": "089-233720-3"
  },
  {
    "Name": "寶佳動物醫院",
    "Address": "台東縣台東市傳廣路107號",
    "Latitude": 22.758743,
    "Longitude": 121.1437868,
    "Tel": "089-359-858"
  },
  {
    "Name": "崇仁動物醫院",
    "Address": "台東縣台東市更生路574號",
    "Latitude": 22.7645816,
    "Longitude": 121.1395099,
    "Tel": "089-352199"
  },
  {
    "Name": "愛犬獸醫院",
    "Address": "台東縣台東市中華路325號",
    "Latitude": 22.7548498,
    "Longitude": 121.1538696,
    "Tel": "089-346366"
  },
  {
    "Name": "台東犬貓專科醫院",
    "Address": "台東縣台東市更生路670號",
    "Latitude": 22.7661753,
    "Longitude": 121.1382342,
    "Tel": "089-221800"
  },
  {
    "Name": "懷恩動物醫院",
    "Address": "台東縣台東市開封街575號",
    "Latitude": 22.758181,
    "Longitude": 121.1363511,
    "Tel": "089-333070"
  },
  {
    "Name": "瑞興動物醫院",
    "Address": "台東縣台東市更生路540號",
    "Latitude": 22.7640939,
    "Longitude": 121.1400555,
    "Tel": "08-9323682"
  },
  {
    "Name": "向日動物醫院",
    "Address": "台東縣台東市中華路一段364號",
    "Latitude": 22.7546255,
    "Longitude": 121.153348,
    "Tel": "08-9342501"
  },
  {
    "Name": "聯合動物醫院",
    "Address": "台東縣台東市傳廣路225號",
    "Latitude": 22.7623797,
    "Longitude": 121.1439182,
    "Tel": "08-9332505"
  }
]