[
 {
   "Name":"綠崧動物醫院",
   "Address":"桃園縣中壢市環中東路二段112號",
   "Latitude":36.5677206,
   "Longitude":139.9033588,
   "Tel":"03-4653266"
 },
 {
   "Name":"思邁爾動物醫院-中壢分院",
   "Address":"桃園縣中壢市環北路562號",
   "Latitude":24.9499595,
   "Longitude":121.2379336,
   "Tel":"(03)435-1510"
 },
 {
   "Name":"耐斯動物醫院",
   "Address":"桃園縣中壢市環中東路189-1號",
   "Latitude":24.964547,
   "Longitude":121.228578,
   "Tel":"03-4335966"
 },
 {
   "Name":"台灣樂活動物協會",
   "Address":"桃園縣中壢市龍東里445巷231號",
   "Latitude":24.9639309,
   "Longitude":121.2575009,
   "Tel":"(03)438-0061"
 },
 {
   "Name":"康橋動物醫院",
   "Address":"桃園縣中壢市新興路245號",
   "Latitude":24.9346456,
   "Longitude":121.2512414,
   "Tel":"(03)284-1177"
 },
 {
   "Name":"中壢太樸動物醫院",
   "Address":"桃園縣中壢市中北路51號",
   "Latitude":24.9541609,
   "Longitude":121.228311,
   "Tel":"(03)456-9911"
 },
 {
   "Name":"康旭犬貓專科醫院",
   "Address":"桃園縣中壢市龍岡路三段305號",
   "Latitude":24.956148,
   "Longitude":121.236934,
   "Tel":"(03)450-6050"
 },
 {
   "Name":"中興動物醫院",
   "Address":"桃園縣中壢市民族路246號",
   "Latitude":24.934012,
   "Longitude":121.236368,
   "Tel":"(03)494-1312"
 },
 {
   "Name":"環東動物醫院",
   "Address":"桃園縣中壢市環東路110號",
   "Latitude":24.9625812,
   "Longitude":121.157272,
   "Tel":"(03)433-2339"
 },
 {
   "Name":"中信動物醫院",
   "Address":"桃園縣中壢市環中東路2段380號",
   "Latitude":24.9652516,
   "Longitude":121.258717,
   "Tel":"(03)459-7245"
 },
 {
   "Name":"豐安獸醫院",
   "Address":"桃園縣中壢市中豐路16號",
   "Latitude":24.9474254,
   "Longitude":121.2339434,
   "Tel":"(03)422-5643"
 },
 {
   "Name":"中原動物醫院",
   "Address":"桃園縣中壢市環北路447號",
   "Latitude":24.9640727,
   "Longitude":121.2201876,
   "Tel":"(03)451-2927"
 },
 {
   "Name":"延平動物醫院",
   "Address":"桃園縣中壢市延平路321號",
   "Latitude":24.9660509,
   "Longitude":121.227088,
   "Tel":"(03)425-1909"
 },
 {
   "Name":"長生動物醫院",
   "Address":"桃園縣中壢市環中東路二段24號",
   "Latitude":24.9604749,
   "Longitude":121.2259374,
   "Tel":"(03)456-6941"
 },
 {
   "Name":"加州動物醫院",
   "Address":"桃園縣中壢市環中東路860號",
   "Latitude":24.9511987,
   "Longitude":121.2398459,
   "Tel":"(03)456-0599"
 },
 {
   "Name":"振愛動物醫院",
   "Address":"桃園縣中壢市龍東路188號",
   "Latitude":24.9529632,
   "Longitude":121.2420828,
   "Tel":"(03)465-2934"
 },
 {
   "Name":"恆星獸醫院",
   "Address":"桃園縣中壢市龍文街35巷2號",
   "Latitude":24.9296279,
   "Longitude":121.253045,
   "Tel":"(03)456-1992"
 },
 {
   "Name":"友信動物醫院",
   "Address":"桃園縣中壢市廣安街10號",
   "Latitude":24.93587,
   "Longitude":121.2555514,
   "Tel":"(03)280-4527"
 },
 {
   "Name":"圓霖動物醫院-sogo店",
   "Address":"桃園縣中壢市新生路286號",
   "Latitude":24.9580358,
   "Longitude":121.2236697,
   "Tel":"(03)427-3222"
 },
 {
   "Name":"中山動物醫院-中正分院",
   "Address":"桃園縣中壢市延平路583號2樓",
   "Latitude":24.9639058,
   "Longitude":121.2231712,
   "Tel":"(03)426-0566"
 },
 {
   "Name":"康淇動物醫院",
   "Address":"桃園縣中壢市元化路二段47號",
   "Latitude":24.954601,
   "Longitude":121.222719,
   "Tel":"(03)427-8606"
 },
 {
   "Name":"天一動物醫院",
   "Address":"桃園縣中壢市中華路1段133號",
   "Latitude":24.9624486,
   "Longitude":121.2213046,
   "Tel":"(03)451-2480"
 },
 {
   "Name":"中泰家畜醫院",
   "Address":"桃園縣中壢市中華路一段408號",
   "Latitude":24.9736594,
   "Longitude":121.2608816,
   "Tel":"(03)481-3519"
 },
 {
   "Name":"順鴻動物醫院",
   "Address":"桃園縣中壢市中正路四段22號",
   "Latitude":24.971409,
   "Longitude":121.2545657,
   "Tel":"(03)498-3635"
 },
 {
   "Name":"中央動物醫院",
   "Address":"桃園縣中壢市中央西路二段84號",
   "Latitude":24.98795,
   "Longitude":121.1820875,
   "Tel":"(03)495-3214"
 },
 {
   "Name":"圓霖動物醫院－中原二館",
   "Address":"桃園縣中壢市中山東路二段16號",
   "Latitude":24.9584679,
   "Longitude":121.215961,
   "Tel":"(03)465-3377"
 },
 {
   "Name":"圓霖動物醫院－中原一館",
   "Address":"桃園縣中壢市中山東路一段309號",
   "Latitude":24.9543649,
   "Longitude":121.2371363,
   "Tel":"(03)466-7649"
 },
 {
   "Name":"中山動物醫院",
   "Address":"桃園縣中壢市中山東路一段144號",
   "Latitude":24.9553797,
   "Longitude":121.2359399,
   "Tel":"(03)461-6669"
 },
 {
   "Name":"生安動物醫院",
   "Address":"桃園縣中壢市中山東路一段108號",
   "Latitude":24.9565249,
   "Longitude":121.2320992,
   "Tel":"(03)433-2251"
 },
 {
   "Name":"宏安動物醫院",
   "Address":"桃園縣中壢市延平路265號",
   "Latitude":24.9563385,
   "Longitude":121.2314701,
   "Tel":"(03)425-3071"
 },
 {
   "Name":"恆生動物醫院",
   "Address":"桃園縣中壢市中美路一段13號",
   "Latitude":24.9611011,
   "Longitude":121.2265251,
   "Tel":"(03)425-1893"
 },
 {
   "Name":"諾亞動物醫院",
   "Address":"桃園縣中壢市中山路36號",
   "Latitude":24.959305,
   "Longitude":121.2238075,
   "Tel":"(03)426-4015"
 },
 {
   "Name":"新興動物醫院",
   "Address":"桃園縣平鎮市延平路一段65號",
   "Latitude":24.9557026,
   "Longitude":121.2273663,
   "Tel":"(03)422-2594"
 },
 {
   "Name":"大業動物醫院",
   "Address":"桃園縣平鎮市延平路2段294號",
   "Latitude":24.951594,
   "Longitude":121.219907,
   "Tel":"(03)494-6888"
 },
 {
   "Name":"冠友動物醫院",
   "Address":"桃園縣平鎮市中豐路南勢二段40號",
   "Latitude":24.9457388,
   "Longitude":121.2087937,
   "Tel":"(03)439-7957"
 },
 {
   "Name":"游動物醫院",
   "Address":"桃園縣平鎮市新勢里14鄰中原路147號",
   "Latitude":24.918728,
   "Longitude":121.210929,
   "Tel":"(03)422-6466"
 },
 {
   "Name":"振生動物醫院",
   "Address":"桃園縣平鎮市金陵路109號",
   "Latitude":24.951598,
   "Longitude":121.219012,
   "Tel":"(03)459-4320"
 },
 {
   "Name":"旺旺動物醫院",
   "Address":"桃園縣龍潭鄉龍潭村龍元路58號",
   "Latitude":24.947502,
   "Longitude":121.223047,
   "Tel":"(03)470-3048"
 },
 {
   "Name":"東豐動物醫院",
   "Address":"桃園縣龍潭鄉東龍路292號",
   "Latitude":24.9936281,
   "Longitude":121.3009798,
   "Tel":"(03)499-1998"
 },
 {
   "Name":"泛亞動物醫院",
   "Address":"桃園縣龍潭鄉東龍路285號",
   "Latitude":24.9936281,
   "Longitude":121.3009798,
   "Tel":"(03)480-3728"
 },
 {
   "Name":"梁動物醫院",
   "Address":"桃園縣龍潭鄉東龍路136號",
   "Latitude":24.9936281,
   "Longitude":121.3009798,
   "Tel":"(03)479-2945"
 },
 {
   "Name":"人人動物醫院",
   "Address":"桃園縣龍潭鄉龍潭村北龍路122號",
   "Latitude":24.9936281,
   "Longitude":121.3009798,
   "Tel":"(03)489-5900"
 },
 {
   "Name":"徐犬貓專科醫院",
   "Address":"桃園縣龍潭鄉中山里中豐路中山段13號",
   "Latitude":24.9936281,
   "Longitude":121.3009798,
   "Tel":"(03)409-2158"
 },
 {
   "Name":"杏昌動物醫院",
   "Address":"桃園縣楊梅鎮四維路162號1樓",
   "Latitude":24.8689915,
   "Longitude":121.2132765,
   "Tel":"(03)481-4221"
 },
 {
   "Name":"人人動物醫院埔心分院",
   "Address":"桃園縣楊梅鎮埔心里永美路274號",
   "Latitude":24.9125339,
   "Longitude":121.1816705,
   "Tel":"(03)431-5700"
 },
 {
   "Name":"東昇動物醫院",
   "Address":"桃園縣楊梅鎮新成路109號",
   "Latitude":24.9181797,
   "Longitude":121.1827993,
   "Tel":"(03)485-0171"
 },
 {
   "Name":"崇恩動物醫院",
   "Address":"桃園縣楊梅鎮埔心文化街32號",
   "Latitude":24.9104828,
   "Longitude":121.146892,
   "Tel":"(03)482-3627"
 },
 {
   "Name":"楊梅動物醫院",
   "Address":"桃園縣楊梅鎮中山路10號",
   "Latitude":24.9936281,
   "Longitude":121.3009798,
   "Tel":"(03)485-5343"
 },
 {
   "Name":"嘉興動物醫院",
   "Address":"桃園縣楊梅鎮中山北路二段382號",
   "Latitude":24.9074116,
   "Longitude":121.148571,
   "Tel":"(03)482-0808"
 },
 {
   "Name":"寵愛動物醫院",
   "Address":"桃園縣桃園市大興西路二段176號",
   "Latitude":24.9130492,
   "Longitude":121.1767037,
   "Tel":"03-3411700"
 },
 {
   "Name":"仰望動物醫院",
   "Address":"桃園縣桃園市莊二街75號",
   "Latitude":25.0097912,
   "Longitude":121.2959587,
   "Tel":"(03)317-8090"
 },
 {
   "Name":"全球動物醫院",
   "Address":"桃園縣桃園市國際路2段51號",
   "Latitude":25.0238081,
   "Longitude":121.294045,
   "Tel":"(03)217-0011"
 },
 {
   "Name":"普羅動物醫院",
   "Address":"桃園縣桃園市中山路928號",
   "Latitude":24.991349,
   "Longitude":121.2881709,
   "Tel":"(03)378-9900"
 },
 {
   "Name":"宥昇動物醫院",
   "Address":"桃園縣桃園市民族路97號1樓",
   "Latitude":24.9898159,
   "Longitude":121.287689,
   "Tel":"(03)335-6109"
 },
 {
   "Name":"桃園縣政府動物防疫所",
   "Address":"桃園縣桃園市縣府路57號",
   "Latitude":24.991529,
   "Longitude":121.309252,
   "Tel":"(03)332-6742"
 },
 {
   "Name":"大禾動物醫院",
   "Address":"桃園縣桃園市豐林里建國路218號",
   "Latitude":24.993114,
   "Longitude":121.300373,
   "Tel":"(03)362-5122"
 },
 {
   "Name":"元氣動物醫院",
   "Address":"桃園縣桃園市三民路三段381號",
   "Latitude":24.9852779,
   "Longitude":121.307944,
   "Tel":"(03)333-3816"
 },
 {
   "Name":"永安動物醫院",
   "Address":"桃園縣桃園市永安路554號",
   "Latitude":24.990033,
   "Longitude":121.30725,
   "Tel":"(03)337-7332"
 },
 {
   "Name":"桃鶯動物醫院",
   "Address":"桃園縣桃園市桃鶯路101號",
   "Latitude":25.0022879,
   "Longitude":121.298357,
   "Tel":"(03)375-4339"
 },
 {
   "Name":"陳獸醫院",
   "Address":"桃園縣桃園市中山北路189號",
   "Latitude":24.9872831,
   "Longitude":121.3180996,
   "Tel":"(03)333-1119"
 },
 {
   "Name":"日安動物醫院",
   "Address":"桃園縣桃園市永安路267號",
   "Latitude":24.9078649,
   "Longitude":121.153778,
   "Tel":"(03)333-5723"
 },
 {
   "Name":"思邁爾動物醫院-桃園總院",
   "Address":"桃園縣桃園市寶慶路422號",
   "Latitude":24.998797,
   "Longitude":121.302265,
   "Tel":"(03)301-1515"
 },
 {
   "Name":"柏林動物醫院",
   "Address":"桃園縣桃園市龍安街68號",
   "Latitude":25.0185471,
   "Longitude":121.2904677,
   "Tel":"(03)369-9623"
 },
 {
   "Name":"新世紀獸醫院",
   "Address":"桃園縣桃園市萬壽路三段179號",
   "Latitude":24.9885311,
   "Longitude":121.2806387,
   "Tel":"(03)332-8100"
 },
 {
   "Name":"吉布動物醫院",
   "Address":"桃園縣桃園市新埔七街134號",
   "Latitude":24.99076,
   "Longitude":121.319276,
   "Tel":"(03)358-5664"
 },
 {
   "Name":"春天動物醫院",
   "Address":"桃園縣桃園市三民路一段191號",
   "Latitude":25.0212499,
   "Longitude":121.30097,
   "Tel":"(03)333-0995"
 },
 {
   "Name":"寵物反斗城動物醫院",
   "Address":"桃園縣桃園市桃鶯路64號",
   "Latitude":25.0007469,
   "Longitude":121.317824,
   "Tel":"(03)367-3006"
 },
 {
   "Name":"安辛動物醫院",
   "Address":"桃園縣桃園市民生路558號",
   "Latitude":24.9707635,
   "Longitude":121.3272026,
   "Tel":"(03)336-7775"
 },
 {
   "Name":"新桃園犬貓專科醫院",
   "Address":"桃園縣桃園市正光街131號",
   "Latitude":25.000903,
   "Longitude":121.3103469,
   "Tel":"(03)392-0229"
 },
 {
   "Name":"愛心動物醫院",
   "Address":"桃園縣桃園市中寧街23號",
   "Latitude":24.994619,
   "Longitude":121.294947,
   "Tel":"(03)358-5827"
 },
 {
   "Name":"圓霖動物醫院－桃園中正旗艦店",
   "Address":"桃園縣桃園市中正路836號",
   "Latitude":25.0183941,
   "Longitude":121.2964178,
   "Tel":"(03)317-7608"
 },
 {
   "Name":"振源動物醫院",
   "Address":"桃園縣桃園市中山東路215號",
   "Latitude":25.0101765,
   "Longitude":121.3016593,
   "Tel":"(03)332-4825"
 },
 {
   "Name":"花客隆動物醫院",
   "Address":"桃園縣桃園市大興西路一段221號",
   "Latitude":24.957161,
   "Longitude":121.2337867,
   "Tel":"(03)261-5588"
 },
 {
   "Name":"聖愛動物醫院",
   "Address":"桃園縣桃園市大有路445號1樓",
   "Latitude":25.0134304,
   "Longitude":121.3030176,
   "Tel":"(03)325-3633"
 },
 {
   "Name":"禾原動物醫院",
   "Address":"桃園縣桃園市大有路159號",
   "Latitude":25.0116101,
   "Longitude":121.3190145,
   "Tel":"(03)332-1695"
 },
 {
   "Name":"寶慶動物醫院",
   "Address":"桃園縣桃園市寶慶路286號",
   "Latitude":25.0069129,
   "Longitude":121.320584,
   "Tel":"(03)301-1933"
 },
 {
   "Name":"泰安動物醫院",
   "Address":"桃園縣桃園市復興路44號",
   "Latitude":25.0148022,
   "Longitude":121.2920111,
   "Tel":"(03)337-2939"
 },
 {
   "Name":"春日動物醫院",
   "Address":"桃園縣桃園市春日路975巷4號",
   "Latitude":24.991006,
   "Longitude":121.31764,
   "Tel":"(03)355-9338"
 },
 {
   "Name":"青山動物醫院",
   "Address":"桃園縣桃園市春日路229號",
   "Latitude":24.9911229,
   "Longitude":121.3178894,
   "Tel":"(03)333-3637"
 },
 {
   "Name":"大興獸醫院",
   "Address":"桃園縣桃園市永安路831號",
   "Latitude":24.9973344,
   "Longitude":121.3153132,
   "Tel":"(03)302-5236"
 },
 {
   "Name":"花客隆動物醫院",
   "Address":"桃園縣桃園市永安路348號",
   "Latitude":25.008347,
   "Longitude":121.289131,
   "Tel":"(03)336-9155"
 },
 {
   "Name":"萬欣犬貓專科醫院",
   "Address":"桃園縣桃園市民生路610號",
   "Latitude":24.999217,
   "Longitude":121.302153,
   "Tel":"(03)338-4637"
 },
 {
   "Name":"奇昀動物醫院",
   "Address":"桃園縣桃園市民生路374號1樓",
   "Latitude":25.0020039,
   "Longitude":121.3098259,
   "Tel":"(03)331-3170"
 },
 {
   "Name":"永祥動物醫院",
   "Address":"桃園縣桃園市正光街117號",
   "Latitude":24.9975556,
   "Longitude":121.3117427,
   "Tel":"(03)392-0149"
 },
 {
   "Name":"惠犬動物醫院",
   "Address":"桃園縣桃園市中山路764號",
   "Latitude":24.9943119,
   "Longitude":121.294928,
   "Tel":"(03)360-6590"
 },
 {
   "Name":"哲安動物醫院",
   "Address":"桃園縣桃園市中山路632號",
   "Latitude":24.9913,
   "Longitude":121.292056,
   "Tel":"(03)333-7785"
 },
 {
   "Name":"高生動物醫院",
   "Address":"桃園縣桃園市中山路419號",
   "Latitude":24.991057,
   "Longitude":121.296206,
   "Tel":"(03)338-7799"
 },
 {
   "Name":"彩虹動物醫院",
   "Address":"桃園縣桃園市大興西路1段221號",
   "Latitude":24.9916739,
   "Longitude":121.300439,
   "Tel":"(03)262-8322"
 },
 {
   "Name":"大安動物醫院",
   "Address":"桃園縣桃園市三民路1段24號",
   "Latitude":25.0134304,
   "Longitude":121.3030176,
   "Tel":"(03)333-5025"
 },
 {
   "Name":"摩兒寵物精品商店",
   "Address":"桃園縣龜山鄉文興路128號",
   "Latitude":24.9969659,
   "Longitude":121.322603,
   "Tel":"(03)327-3999"
 },
 {
   "Name":"長春動物醫院",
   "Address":"桃園縣龜山鄉萬壽路二段960號",
   "Latitude":25.0571666,
   "Longitude":121.3653206,
   "Tel":"(03)329-8323"
 },
 {
   "Name":"欣欣動物醫院",
   "Address":"桃園縣龜山鄉萬壽路二段918號",
   "Latitude":25.016413,
   "Longitude":121.401331,
   "Tel":"(03)350-0683"
 },
 {
   "Name":"聖恩動物醫院",
   "Address":"桃園縣龜山鄉萬壽路二段1141號",
   "Latitude":25.016413,
   "Longitude":121.401331,
   "Tel":"(03)350-7425"
 },
 {
   "Name":"信安動物醫院",
   "Address":"桃園縣龜山鄉新路村自強南路82號",
   "Latitude":25.016413,
   "Longitude":121.401331,
   "Tel":"(03)350-3075"
 },
 {
   "Name":"藍世界動物醫院",
   "Address":"桃園縣龜山鄉忠義路二段519號",
   "Latitude":24.9936281,
   "Longitude":121.3009798,
   "Tel":"(03)211-5167"
 },
 {
   "Name":"凱特動物醫院",
   "Address":"桃園縣八德市介壽路二段260號",
   "Latitude":25.053343,
   "Longitude":121.3586458,
   "Tel":"(03)218-3833"
 },
 {
   "Name":"立仁動物醫院",
   "Address":"桃園縣八德市建國路1134號",
   "Latitude":24.9505684,
   "Longitude":121.2978368,
   "Tel":"(03)362-0221"
 },
 {
   "Name":"大順家畜醫院",
   "Address":"桃園縣八德市新興路291號",
   "Latitude":24.956725,
   "Longitude":121.297123,
   "Tel":"(03)366-6885"
 },
 {
   "Name":"進安動物醫院",
   "Address":"桃園縣八德市介壽路二段274號",
   "Latitude":24.948368,
   "Longitude":121.284332,
   "Tel":"(03)364-2686"
 },
 {
   "Name":"和平動物醫院",
   "Address":"桃園縣八德市介壽路二段113號",
   "Latitude":24.9502901,
   "Longitude":121.2977951,
   "Tel":"(03)363-5820"
 },
 {
   "Name":"仁愛動物醫院",
   "Address":"桃園縣八德市介壽路二段1087號",
   "Latitude":24.955124,
   "Longitude":121.299093,
   "Tel":"(03)365-0149"
 },
 {
   "Name":"杏旺動物醫院",
   "Address":"桃園縣八德市介壽路1段731號",
   "Latitude":24.9336694,
   "Longitude":121.2977283,
   "Tel":"(03)377-9015"
 },
 {
   "Name":"聯眾動物醫院",
   "Address":"桃園縣大溪鎮文化路79號",
   "Latitude":24.9679945,
   "Longitude":121.301164,
   "Tel":"(03)388-7799"
 },
 {
   "Name":"仟祐動物醫院",
   "Address":"桃園縣大溪鎮介壽路796號",
   "Latitude":24.881465,
   "Longitude":121.2933793,
   "Tel":"(03)380-4477"
 },
 {
   "Name":"麗園動物醫院-大園分院",
   "Address":"桃園縣大園鄉中正東路5號",
   "Latitude":24.9028919,
   "Longitude":121.2841519,
   "Tel":"03-3855577"
 },
 {
   "Name":"林獸醫動物診所",
   "Address":"桃園縣大園鄉中山南路75巷14號",
   "Latitude":25.0598251,
   "Longitude":121.2097429,
   "Tel":"(03)386-7960"
 },
 {
   "Name":"設想動物醫院",
   "Address":"桃園縣蘆竹鄉南順七街22號1樓",
   "Latitude":24.9936281,
   "Longitude":121.3009798,
   "Tel":"(03)222-5859"
 },
 {
   "Name":"南崁動物醫院",
   "Address":"桃園縣蘆竹鄉中正路379號",
   "Latitude":24.9936281,
   "Longitude":121.3009798,
   "Tel":"(03)352-0136"
 },
 {
   "Name":"圓霖動物醫院－南崁店",
   "Address":"桃園縣蘆竹鄉南崁中正路362號",
   "Latitude":25.0596697,
   "Longitude":121.2099129,
   "Tel":"(03)212-5555"
 },
 {
   "Name":"新時代動物醫院",
   "Address":"桃園縣蘆竹鄉中正路337號",
   "Latitude":24.9936281,
   "Longitude":121.3009798,
   "Tel":"(03)352-2257"
 },
 {
   "Name":"中華動物醫院",
   "Address":"桃園縣蘆竹鄉中正路229號",
   "Latitude":25.0596697,
   "Longitude":121.2099129,
   "Tel":"(03)352-2669"
 }
]