[
  {
    "Name": "大安家畜醫院",
    "Address": "雲林縣斗南鎮東仁里南昌路34號",
    "Latitude": 23.674433,
    "Longitude": 120.481425,
    "Tel": "05-5973049"
  },
  {
    "Name": "群安動物診所",
    "Address": "雲林縣斗南鎮明昌里南昌西路63號",
    "Latitude": 23.671559,
    "Longitude": 120.474959,
    "Tel": "05-5960173"
  },
  {
    "Name": "佑晟動物醫院",
    "Address": "雲林縣斗南鎮順安街30號",
    "Latitude": 23.6719668,
    "Longitude": 120.4780993,
    "Tel": "05-5964798"
  },
  {
    "Name": "中美犬畜診所",
    "Address": "雲林縣斗南鎮順安街164號",
    "Latitude": 23.676744,
    "Longitude": 120.477465,
    "Tel": "05-5972150"
  },
  {
    "Name": "誠浩動物醫院",
    "Address": "雲林縣斗南鎮建國一路55號",
    "Latitude": 23.6836433,
    "Longitude": 120.4793427,
    "Tel": "05-5966561"
  },
  {
    "Name": "嘉信家畜診所",
    "Address": "雲林縣大埤鄉南和村尼姑庵63號",
    "Latitude": 23.643452,
    "Longitude": 120.414806,
    "Tel": "05-5914121"
  },
  {
    "Name": "立旺動物診所",
    "Address": "雲林縣虎尾鎮建國一村242號",
    "Latitude": 23.714891,
    "Longitude": 120.423445,
    "Tel": "05-6327342"
  },
  {
    "Name": "健康寶貝動物診所",
    "Address": "雲林縣虎尾鎮新興里新生路110號",
    "Latitude": 23.7077679,
    "Longitude": 120.4367438,
    "Tel": "05-6338668"
  },
  {
    "Name": "佳畜動物診所",
    "Address": "雲林縣虎尾鎮下溪里大庄路37之32號",
    "Latitude": 23.7113706,
    "Longitude": 120.4575121,
    "Tel": "05-6224845"
  },
  {
    "Name": "順興家畜診所",
    "Address": "雲林縣虎尾鎮公安里公安路344號",
    "Latitude": 23.7089989,
    "Longitude": 120.4331665,
    "Tel": "05-6333811"
  },
  {
    "Name": "虎尾動物醫院",
    "Address": "雲林縣虎尾鎮林森路2段521號",
    "Latitude": 23.6978341,
    "Longitude": 120.424094,
    "Tel": "05-6311677"
  },
  {
    "Name": "志成動物醫院",
    "Address": "雲林縣虎尾鎮林森路二段395號",
    "Latitude": 23.7009255,
    "Longitude": 120.4260917,
    "Tel": "05-6330056"
  },
  {
    "Name": "龍山獸醫醫院",
    "Address": "雲林縣虎尾鎮林森路二段325號",
    "Latitude": 23.701962,
    "Longitude": 120.427283,
    "Tel": "05-6361111"
  },
  {
    "Name": "國際犬貓診所",
    "Address": "雲林縣虎尾鎮立仁里林森路2段180號",
    "Latitude": 23.7041037,
    "Longitude": 120.4282949,
    "Tel": "05-6324100"
  },
  {
    "Name": "土庫家畜診所",
    "Address": "雲林縣土庫鎮石廟里復興路107號",
    "Latitude": 23.6820306,
    "Longitude": 120.3903768,
    "Tel": "05-6627916"
  },
  {
    "Name": "信誼動物診所",
    "Address": "雲林縣土庫鎮崙內里果圍路77號",
    "Latitude": 23.683866,
    "Longitude": 120.352447,
    "Tel": "05-6653590"
  },
  {
    "Name": "家齊動物診所",
    "Address": "雲林縣褒忠鄉新湖村復興路30號",
    "Latitude": 23.705317,
    "Longitude": 120.2845431,
    "Tel": "05-6973653"
  },
  {
    "Name": "培坤動物診所",
    "Address": "雲林縣褒忠鄉新湖村復興路17號",
    "Latitude": 23.7072519,
    "Longitude": 120.285603,
    "Tel": "05-6973967"
  },
  {
    "Name": "褒忠家畜診所",
    "Address": "雲林縣褒忠鄉中民村中正路117號",
    "Latitude": 23.6948972,
    "Longitude": 120.3126822,
    "Tel": "05-6971782"
  },
  {
    "Name": "佐益家畜診所",
    "Address": "雲林縣崙背鄉草湖村134-11號",
    "Latitude": 23.8024221,
    "Longitude": 120.3304728,
    "Tel": "05-6551003"
  },
  {
    "Name": "恩愛動物診所",
    "Address": "雲林縣崙背鄉南陽村中山路40之48號",
    "Latitude": 23.7593396,
    "Longitude": 120.360174,
    "Tel": "05-6967827"
  },
  {
    "Name": "福泰動物醫院",
    "Address": "雲林縣麥寮鄉明德街58號",
    "Latitude": 23.7509772,
    "Longitude": 120.257138,
    "Tel": "05-6931761"
  },
  {
    "Name": "鑫信家畜醫院",
    "Address": "雲林縣麥寮鄉興華村中山路462-10號",
    "Latitude": 23.750924,
    "Longitude": 120.248626,
    "Tel": "05-6932615"
  },
  {
    "Name": "弘安動物醫院",
    "Address": "雲林縣斗六市西平路276號",
    "Latitude": 23.713427,
    "Longitude": 120.5337525,
    "Tel": "05 533 3536"
  },
  {
    "Name": "日晟家畜診所",
    "Address": "雲林縣斗六市崙峰里崙北路21之5號",
    "Latitude": 23.682085,
    "Longitude": 120.540494,
    "Tel": "05-5826092"
  },
  {
    "Name": "斗六家畜診所",
    "Address": "雲林縣斗六市三平里雲林路一段82號",
    "Latitude": 23.7088062,
    "Longitude": 120.5395297,
    "Tel": "05-5325013"
  },
  {
    "Name": "晉揚家畜診所",
    "Address": "雲林縣斗六市重光里榮譽路974巷75號",
    "Latitude": 23.7021439,
    "Longitude": 120.5743041,
    "Tel": "05-5345775"
  },
  {
    "Name": "富隆動物診所",
    "Address": "雲林縣斗六市城頂街19之1號",
    "Latitude": 23.7067649,
    "Longitude": 120.5449021,
    "Tel": "05-5329134"
  },
  {
    "Name": "博愛動物醫院",
    "Address": "雲林縣斗六市愛國街153號",
    "Latitude": 23.708266,
    "Longitude": 120.538422,
    "Tel": "05-5339907"
  },
  {
    "Name": "慶安家畜診所",
    "Address": "雲林縣斗六市北里育英北街109之1號",
    "Latitude": 23.7155176,
    "Longitude": 120.5511332,
    "Tel": "05-5338313"
  },
  {
    "Name": "鎮東動物醫院",
    "Address": "雲林縣斗六市文化路298號",
    "Latitude": 23.711297,
    "Longitude": 120.552259,
    "Tel": "05-5333725"
  },
  {
    "Name": "愛親獸醫院",
    "Address": "雲林縣斗六市永昌西街177號",
    "Latitude": 23.702867,
    "Longitude": 120.53667,
    "Tel": "05-5361313"
  },
  {
    "Name": "明志動物醫院",
    "Address": "雲林縣斗六市城頂街62-2號",
    "Latitude": 23.707097,
    "Longitude": 120.543002,
    "Tel": "05-5323358"
  },
  {
    "Name": "佳昇動物醫院",
    "Address": "雲林縣斗六市西平路303號",
    "Latitude": 23.715292,
    "Longitude": 120.530407,
    "Tel": "05-5511660"
  },
  {
    "Name": "弘安動物醫院",
    "Address": "雲林縣斗六市西平路276號",
    "Latitude": 23.713427,
    "Longitude": 120.5337525,
    "Tel": "05-5333536"
  },
  {
    "Name": "聯益家畜診所",
    "Address": "雲林縣斗六市西平路18-1號",
    "Latitude": 23.707302,
    "Longitude": 120.539726,
    "Tel": "05-5326856"
  },
  {
    "Name": "文志動物醫院",
    "Address": "雲林縣斗六市文化路344號",
    "Latitude": 23.7116468,
    "Longitude": 120.5535075,
    "Tel": "05-5322735"
  },
  {
    "Name": "新生動物醫院",
    "Address": "雲林縣斗六市太平路186號",
    "Latitude": 23.706913,
    "Longitude": 120.540406,
    "Tel": "05-5338320"
  },
  {
    "Name": "大和家畜診所",
    "Address": "雲林縣西螺鎮中正路171巷5號",
    "Latitude": 23.7977867,
    "Longitude": 120.4571203,
    "Tel": "05-5863621"
  },
  {
    "Name": "新德記家畜醫院",
    "Address": "雲林縣西螺鎮平和路162號",
    "Latitude": 23.8000816,
    "Longitude": 120.458697,
    "Tel": "05-5862786"
  },
  {
    "Name": "永安動物醫院",
    "Address": "雲林縣西螺鎮文昌路105-2號",
    "Latitude": 23.797611,
    "Longitude": 120.4636317,
    "Tel": "05-5865311"
  },
  {
    "Name": "英全動物醫院",
    "Address": "雲林縣二崙鄉義庄村129號",
    "Latitude": 23.818532,
    "Longitude": 120.425007,
    "Tel": "05-5984523"
  },
  {
    "Name": "成昌動物診所",
    "Address": "雲林縣二崙鄉來惠村惠來路65之3號",
    "Latitude": 23.7653101,
    "Longitude": 120.395294,
    "Tel": "05-5989745"
  },
  {
    "Name": "永信家畜診所",
    "Address": "雲林縣二崙鄉大庄村大庄50號",
    "Latitude": 23.8040584,
    "Longitude": 120.3771382,
    "Tel": "05-5982081"
  },
  {
    "Name": "忠愛動物醫院",
    "Address": "雲林縣二崙鄉永定村永定路258號",
    "Latitude": 23.7958256,
    "Longitude": 120.4197921,
    "Tel": "05-5985709"
  },
  {
    "Name": "愛犬獸醫院",
    "Address": "雲林縣二崙鄉田尾村田尾52之26號",
    "Latitude": 23.758668,
    "Longitude": 120.418688,
    "Tel": "05-5989259"
  },
  {
    "Name": "順成家畜醫院",
    "Address": "雲林縣二崙鄉崙東村中山路一段199巷6號",
    "Latitude": 23.7734686,
    "Longitude": 120.4175573,
    "Tel": "05-5984803"
  },
  {
    "Name": "佳信家畜診所",
    "Address": "雲林縣北港鎮民生路137號",
    "Latitude": 23.5648102,
    "Longitude": 120.3021618,
    "Tel": "05-7833526"
  },
  {
    "Name": "來喜寵物醫院",
    "Address": "雲林縣北港鎮大同路234號",
    "Latitude": 23.572078,
    "Longitude": 120.301184,
    "Tel": "05-7826785"
  },
  {
    "Name": "奇恩動物醫院",
    "Address": "雲林縣北港鎮大同路149號",
    "Latitude": 23.5719159,
    "Longitude": 120.3009271,
    "Tel": "05-7732979"
  },
  {
    "Name": "信安犬貓醫院",
    "Address": "雲林縣北港鎮華勝路33號",
    "Latitude": 23.5893948,
    "Longitude": 120.3009303,
    "Tel": "05-7835158"
  },
  {
    "Name": "樺樺動物醫院",
    "Address": "雲林縣北港鎮大同里文化路116號",
    "Latitude": 23.571765,
    "Longitude": 120.303114,
    "Tel": "05-7835382"
  },
  {
    "Name": "黃文志動物醫院",
    "Address": "雲林縣北港鎮大同路319號",
    "Latitude": 23.572609,
    "Longitude": 120.298029,
    "Tel": "05-7732000"
  },
  {
    "Name": "四湖動物醫院",
    "Address": "雲林縣四湖鄉中正路387號",
    "Latitude": 23.635385,
    "Longitude": 120.2253794,
    "Tel": "05-7875088"
  },
  {
    "Name": "聯合家畜醫院",
    "Address": "雲林縣元長鄉長北村中山路120-2號",
    "Latitude": 23.6514791,
    "Longitude": 120.313201,
    "Tel": "05-7882146"
  },
  {
    "Name": "宏昌動物診所",
    "Address": "雲林縣元長鄉合和村合和路40號",
    "Latitude": 23.6552529,
    "Longitude": 120.2963579,
    "Tel": "05-7882534"
  }
]